[
 {
   "Town": "Preston",
   "Latitude": 53.747227,
   "Longitude": -2.672941,
   "charge_points": 3
 },
 {
   "Town": "Halifax",
   "Latitude": 53.716684,
   "Longitude": -1.858056,
   "charge_points": 3
 },
 {
   "Town": "Manchester",
   "Latitude": 53.47384646,
   "Longitude": -2.216877849,
   "charge_points": 3
 },
 {
   "Town": "Stockport",
   "Latitude": 53.408496,
   "Longitude": -2.149898,
   "charge_points": 3
 },
 {
   "Town": "Sutton Coldfield",
   "Latitude": 52.576564,
   "Longitude": -1.88341,
   "charge_points": 3
 },
 {
   "Town": "Stourbridge",
   "Latitude": 52.473774,
   "Longitude": -2.140522,
   "charge_points": 3
 },
 {
   "Town": "Peterborough",
   "Latitude": 52.5983667,
   "Longitude": -0.271185767,
   "charge_points": 3
 },
 {
   "Town": "Colchester",
   "Latitude": 51.88432925,
   "Longitude": 0.913930535,
   "charge_points": 3
 },
 {
   "Town": "Waltham Abbey",
   "Latitude": 51.68256097,
   "Longitude": 0.001115799,
   "charge_points": 3
 },
 {
   "Town": "Wincanton",
   "Latitude": 51.05081,
   "Longitude": -2.421706,
   "charge_points": 3
 },
 {
   "Town": "Oxford",
   "Latitude": 51.830681,
   "Longitude": -1.3083918,
   "charge_points": 3
 },
 {
   "Town": "London",
   "Latitude": 51.488485,
   "Longitude": -0.143428,
   "charge_points": 0
 },
 {
   "Town": "London",
   "Latitude": 51.49637,
   "Longitude": -0.157076,
   "charge_points": 2
 },
 {
   "Town": "London",
   "Latitude": 51.497528,
   "Longitude": -0.127409,
   "charge_points": 0
 },
 {
   "Town": "London",
   "Latitude": 51.500635,
   "Longitude": -0.156616,
   "charge_points": 0
 },
 {
   "Town": "London",
   "Latitude": 51.50683931,
   "Longitude": -0.111933947,
   "charge_points": 4
 },
 {
   "Town": "London",
   "Latitude": 51.505596,
   "Longitude": -0.150176,
   "charge_points": 0
 },
 {
   "Town": "London",
   "Latitude": 51.507291,
   "Longitude": -0.128896,
   "charge_points": 0
 },
 {
   "Town": "London",
   "Latitude": 51.509162,
   "Longitude": -0.13065,
   "charge_points": 2
 },
 {
   "Town": "London",
   "Latitude": 51.50968399,
   "Longitude": -0.142478943,
   "charge_points": 4
 },
 {
   "Town": "London",
   "Latitude": 51.509658,
   "Longitude": -0.145058,
   "charge_points": 0
 },
 {
   "Town": "London",
   "Latitude": 51.510944,
   "Longitude": -0.146848,
   "charge_points": 0
 },
 {
   "Town": "London",
   "Latitude": 51.511865,
   "Longitude": -0.134884,
   "charge_points": 0
 },
 {
   "Town": "London",
   "Latitude": 51.512046,
   "Longitude": -0.129753,
   "charge_points": 0
 },
 {
   "Town": "London",
   "Latitude": 51.512517,
   "Longitude": -0.159597,
   "charge_points": 0
 },
 {
   "Town": "London",
   "Latitude": 51.513645,
   "Longitude": -0.137168,
   "charge_points": 0
 },
 {
   "Town": "London",
   "Latitude": 51.51643,
   "Longitude": -0.114483,
   "charge_points": 0
 },
 {
   "Town": "London",
   "Latitude": 51.516658,
   "Longitude": -0.165698,
   "charge_points": 0
 },
 {
   "Town": "London",
   "Latitude": 51.517068,
   "Longitude": -0.152821,
   "charge_points": 0
 },
 {
   "Town": "London",
   "Latitude": 51.517784,
   "Longitude": -0.101669,
   "charge_points": 0
 },
 {
   "Town": "London",
   "Latitude": 51.518005,
   "Longitude": -0.103962,
   "charge_points": 0
 },
 {
   "Town": "London",
   "Latitude": 51.5190133,
   "Longitude": -0.122246,
   "charge_points": 0
 },
 {
   "Town": "London",
   "Latitude": 51.519293,
   "Longitude": -0.135446,
   "charge_points": 2
 },
 {
   "Town": "London",
   "Latitude": 51.519725,
   "Longitude": -0.152477,
   "charge_points": 0
 },
 {
   "Town": "London",
   "Latitude": 51.520279,
   "Longitude": -0.155659,
   "charge_points": 0
 },
 {
   "Town": "London",
   "Latitude": 51.521129,
   "Longitude": -0.159386,
   "charge_points": 0
 },
 {
   "Town": "London",
   "Latitude": 51.521616,
   "Longitude": -0.140827,
   "charge_points": 0
 },
 {
   "Town": "Slough",
   "Latitude": 51.49256,
   "Longitude": -0.547005,
   "charge_points": 1
 },
 {
   "Town": "Penrith",
   "Latitude": 54.4496537,
   "Longitude": -2.6099819,
   "charge_points": 2
 },
 {
   "Town": "Enfield",
   "Latitude": 51.651838,
   "Longitude": -0.085756,
   "charge_points": 4
 },
 {
   "Town": "Greater London",
   "Latitude": 51.5186226,
   "Longitude": 0.1710923,
   "charge_points": 1
 },
 {
   "Town": "Nottingham",
   "Latitude": 52.98120646,
   "Longitude": -1.236637831,
   "charge_points": 4
 },
 {
   "Town": "Mawgan Porth",
   "Latitude": 50.4694713,
   "Longitude": -5.0287116,
   "charge_points": 5
 },
 {
   "Town": "Lands End",
   "Latitude": 50.07854396,
   "Longitude": -5.685597776,
   "charge_points": 2
 },
 {
   "Town": "Okehampton ",
   "Latitude": 50.743508,
   "Longitude": -4.014306,
   "charge_points": 1
 },
 {
   "Town": "Worthing",
   "Latitude": 50.82060451,
   "Longitude": -0.337443352,
   "charge_points": 2
 },
 {
   "Town": "Horsham",
   "Latitude": 51.0650725,
   "Longitude": -0.3229161,
   "charge_points": 1
 },
 {
   "Town": "Darlington",
   "Latitude": 54.5309689,
   "Longitude": -1.5398674,
   "charge_points": 3
 },
 {
   "Town": "Stockton on Tees",
   "Latitude": 54.49378934,
   "Longitude": -1.352578998,
   "charge_points": 2
 },
 {
   "Town": "Stockton on Tees",
   "Latitude": 54.53505204,
   "Longitude": -1.339668671,
   "charge_points": 2
 },
 {
   "Town": "Stockton on Tees",
   "Latitude": 54.5620848,
   "Longitude": -1.2988276,
   "charge_points": 2
 },
 {
   "Town": "Stockton on Tees",
   "Latitude": 54.5711977,
   "Longitude": -1.3129328,
   "charge_points": 4
 },
 {
   "Town": "Middlesbrough",
   "Latitude": 54.57464879,
   "Longitude": -1.201972961,
   "charge_points": 1
 },
 {
   "Town": "Middlesbrough",
   "Latitude": 54.5790977,
   "Longitude": -1.2379198,
   "charge_points": 2
 },
 {
   "Town": "Stockton on Tees",
   "Latitude": 54.6126391,
   "Longitude": -1.3782734,
   "charge_points": 1
 },
 {
   "Town": "Billingham",
   "Latitude": 54.6074976,
   "Longitude": -1.2944403,
   "charge_points": 1
 },
 {
   "Town": "Billingham",
   "Latitude": 54.6205737,
   "Longitude": -1.2837451,
   "charge_points": 2
 },
 {
   "Town": "Billingham",
   "Latitude": 54.6154839,
   "Longitude": -1.281682,
   "charge_points": 2
 },
 {
   "Town": "Hartlepool",
   "Latitude": 54.63757667,
   "Longitude": -1.184034434,
   "charge_points": 1
 },
 {
   "Town": "Hartlepool",
   "Latitude": 54.6842728,
   "Longitude": -1.2140963,
   "charge_points": 1
 },
 {
   "Town": "Hartlepool",
   "Latitude": 54.68632889,
   "Longitude": -1.209704624,
   "charge_points": 1
 },
 {
   "Town": "Spennymoor",
   "Latitude": 54.7018257,
   "Longitude": -1.579291,
   "charge_points": 2
 },
 {
   "Town": "Durham",
   "Latitude": 54.76707442,
   "Longitude": -1.57001284,
   "charge_points": 1
 },
 {
   "Town": "Durham",
   "Latitude": 54.7860595,
   "Longitude": -1.5851818,
   "charge_points": 5
 },
 {
   "Town": "Durham",
   "Latitude": 54.78018785,
   "Longitude": -1.575465202,
   "charge_points": 2
 },
 {
   "Town": "Durham",
   "Latitude": 54.79508146,
   "Longitude": -1.524621248,
   "charge_points": 4
 },
 {
   "Town": "Houghton-le-Spring",
   "Latitude": 54.8314156,
   "Longitude": -1.4824252,
   "charge_points": 3
 },
 {
   "Town": "Sunderland",
   "Latitude": 54.9046205,
   "Longitude": -1.3914542,
   "charge_points": 2
 },
 {
   "Town": "Sunderland",
   "Latitude": 54.9058554,
   "Longitude": -1.3762451,
   "charge_points": 3
 },
 {
   "Town": "Sunderland",
   "Latitude": 54.9084013,
   "Longitude": -1.3785297,
   "charge_points": 3
 },
 {
   "Town": "Sunderland",
   "Latitude": 54.9182509,
   "Longitude": -1.3629799,
   "charge_points": 1
 },
 {
   "Town": "South Shields",
   "Latitude": 55.00237,
   "Longitude": -1.41876,
   "charge_points": 3
 },
 {
   "Town": "South Shields",
   "Latitude": 54.996771,
   "Longitude": -1.4351572,
   "charge_points": 2
 },
 {
   "Town": "Gateshead",
   "Latitude": 54.9469341,
   "Longitude": -1.5520547,
   "charge_points": 2
 },
 {
   "Town": "Gateshead",
   "Latitude": 54.9646343,
   "Longitude": -1.6030089,
   "charge_points": 2
 },
 {
   "Town": "Gateshead",
   "Latitude": 54.9523854,
   "Longitude": -1.6028173,
   "charge_points": 2
 },
 {
   "Town": "Gateshead",
   "Latitude": 54.9359345,
   "Longitude": -1.6010284,
   "charge_points": 3
 },
 {
   "Town": "Gateshead",
   "Latitude": 54.9476779,
   "Longitude": -1.6501057,
   "charge_points": 1
 },
 {
   "Town": "Gateshead",
   "Latitude": 54.95514207,
   "Longitude": -1.666337809,
   "charge_points": 4
 },
 {
   "Town": "Wylam",
   "Latitude": 54.97652998,
   "Longitude": -1.81643486,
   "charge_points": 3
 },
 {
   "Town": "Newcastle Upon Tyne",
   "Latitude": 54.9689143,
   "Longitude": -1.712574,
   "charge_points": 1
 },
 {
   "Town": "Newcastle Upon Tyne",
   "Latitude": 54.9716739,
   "Longitude": -1.6605666,
   "charge_points": 1
 },
 {
   "Town": "Newcastle Upon Tyne",
   "Latitude": 54.9866308,
   "Longitude": -1.6339525,
   "charge_points": 2
 },
 {
   "Town": "Newcastle Upon Tyne",
   "Latitude": 54.9639852,
   "Longitude": -1.6279578,
   "charge_points": 1
 },
 {
   "Town": "Newcastle Upon Tyne",
   "Latitude": 54.9713347,
   "Longitude": -1.6275463,
   "charge_points": 1
 },
 {
   "Town": "Newcastle Upon Tyne",
   "Latitude": 54.9690789,
   "Longitude": -1.6245212,
   "charge_points": 2
 },
 {
   "Town": "Newcastle Upon Tyne",
   "Latitude": 54.9709145,
   "Longitude": -1.6138193,
   "charge_points": 3
 },
 {
   "Town": "Newcastle Upon Tyne",
   "Latitude": 54.9714443,
   "Longitude": -1.6108461,
   "charge_points": 3
 },
 {
   "Town": "Newcastle Upon Tyne",
   "Latitude": 54.9711963,
   "Longitude": -1.6036316,
   "charge_points": 3
 },
 {
   "Town": "Newcastle Upon Tyne",
   "Latitude": 54.97143132,
   "Longitude": -1.605420113,
   "charge_points": 12
 },
 {
   "Town": "Newcastle upon Tyne",
   "Latitude": 54.9767615,
   "Longitude": -1.6156849,
   "charge_points": 36
 },
 {
   "Town": "Newcastle Upon Tyne",
   "Latitude": 54.9785048,
   "Longitude": -1.610028,
   "charge_points": 3
 },
 {
   "Town": "Newcastle Upon Tyne",
   "Latitude": 55.0043716,
   "Longitude": -1.6199394,
   "charge_points": 1
 },
 {
   "Town": "Newcastle Upon Tyne",
   "Latitude": 55.0155904,
   "Longitude": -1.5036866,
   "charge_points": 2
 },
 {
   "Town": "Whitley Bay",
   "Latitude": 55.0487112,
   "Longitude": -1.4547736,
   "charge_points": 3
 },
 {
   "Town": "Bardon Mill",
   "Latitude": 55.0115825,
   "Longitude": -2.3187093,
   "charge_points": 3
 },
 {
   "Town": "Haltwhistle",
   "Latitude": 54.9967392,
   "Longitude": -2.4441404,
   "charge_points": 1
 },
 {
   "Town": "Near Berwick Upon Tweed",
   "Latitude": 55.6865802,
   "Longitude": -1.9346838,
   "charge_points": 2
 },
 {
   "Town": "Bristol",
   "Latitude": 51.459549,
   "Longitude": -2.581388,
   "charge_points": 4
 },
 {
   "Town": "Bristol",
   "Latitude": 51.525108,
   "Longitude": -2.595388,
   "charge_points": 3
 },
 {
   "Town": "Newbury",
   "Latitude": 51.40842853,
   "Longitude": -1.307169199,
   "charge_points": 2
 },
 {
   "Town": "Brighton",
   "Latitude": 50.86406084,
   "Longitude": -0.083025205,
   "charge_points": 0
 },
 {
   "Town": "Brighton",
   "Latitude": 50.8302124,
   "Longitude": -0.1347852,
   "charge_points": 0
 },
 {
   "Town": "Cambridge",
   "Latitude": 52.2004622,
   "Longitude": 0.1303147,
   "charge_points": 2
 },
 {
   "Town": "Cambridge",
   "Latitude": 52.20714543,
   "Longitude": 0.135268923,
   "charge_points": 2
 },
 {
   "Town": "Bournemouth",
   "Latitude": 50.7232205,
   "Longitude": -1.8767971,
   "charge_points": 2
 },
 {
   "Town": "Bournemouth",
   "Latitude": 50.7528207,
   "Longitude": -1.9293365,
   "charge_points": 3
 },
 {
   "Town": "Hove",
   "Latitude": 50.83519,
   "Longitude": -0.20175,
   "charge_points": 0
 },
 {
   "Town": "Brentwood",
   "Latitude": 51.599254,
   "Longitude": 0.298927,
   "charge_points": 2
 },
 {
   "Town": "Laindon",
   "Latitude": 51.58309,
   "Longitude": 0.40487,
   "charge_points": 0
 },
 {
   "Town": "Southampton",
   "Latitude": 50.93090624,
   "Longitude": -1.450150385,
   "charge_points": 0
 },
 {
   "Town": "Welwyn Garden City",
   "Latitude": 51.80522489,
   "Longitude": -0.20550549,
   "charge_points": 2
 },
 {
   "Town": "Watford",
   "Latitude": 51.65412,
   "Longitude": -0.39285,
   "charge_points": 2
 },
 {
   "Town": "Bromley",
   "Latitude": 51.40389,
   "Longitude": 0.01656,
   "charge_points": 2
 },
 {
   "Town": "Tunbridge Wells",
   "Latitude": 51.1551669,
   "Longitude": 0.284541,
   "charge_points": 5
 },
 {
   "Town": "Leicester",
   "Latitude": 52.63583,
   "Longitude": -1.13756,
   "charge_points": 100
 },
 {
   "Town": "Spitalfields",
   "Latitude": 51.51823,
   "Longitude": -0.07432,
   "charge_points": 0
 },
 {
   "Town": "Kingston",
   "Latitude": 51.4080529,
   "Longitude": -0.3078246,
   "charge_points": 0
 },
 {
   "Town": "Kingston",
   "Latitude": 51.41032,
   "Longitude": -0.2991995,
   "charge_points": 0
 },
 {
   "Town": "Kingston",
   "Latitude": 51.3998467,
   "Longitude": -0.2541452,
   "charge_points": 3
 },
 {
   "Town": "Eltham",
   "Latitude": 51.4511265,
   "Longitude": 0.0506186,
   "charge_points": 5
 },
 {
   "Town": "Hounslow",
   "Latitude": 51.4752293,
   "Longitude": -0.3689578,
   "charge_points": 2
 },
 {
   "Town": "",
   "Latitude": 51.47083814,
   "Longitude": -0.487850904,
   "charge_points": 8
 },
 {
   "Town": "",
   "Latitude": 51.45804483,
   "Longitude": -0.445804596,
   "charge_points": 6
 },
 {
   "Town": "Shepherds Bush",
   "Latitude": 51.50934,
   "Longitude": -0.22283,
   "charge_points": 9
 },
 {
   "Town": "Mayfair",
   "Latitude": 51.5166,
   "Longitude": -0.1444,
   "charge_points": 10
 },
 {
   "Town": "Hounslow",
   "Latitude": 51.4921489,
   "Longitude": -0.275038,
   "charge_points": 0
 },
 {
   "Town": "Hammersmith and Fulham",
   "Latitude": 51.487,
   "Longitude": -0.219917,
   "charge_points": 0
 },
 {
   "Town": "",
   "Latitude": 51.51422,
   "Longitude": -0.12136,
   "charge_points": 0
 },
 {
   "Town": "Norwich",
   "Latitude": 52.62591266,
   "Longitude": 1.288173795,
   "charge_points": 2
 },
 {
   "Town": "Nottingham",
   "Latitude": 52.95865663,
   "Longitude": -1.147604585,
   "charge_points": 2
 },
 {
   "Town": "Stoke on Trent",
   "Latitude": 53.00811,
   "Longitude": -2.17851,
   "charge_points": 0
 },
 {
   "Town": "Croydon",
   "Latitude": 51.37643,
   "Longitude": -0.12006,
   "charge_points": 3
 },
 {
   "Town": "Woking",
   "Latitude": 51.32153,
   "Longitude": -0.55646,
   "charge_points": 2
 },
 {
   "Town": "Kingston upon Thames",
   "Latitude": 51.41453147,
   "Longitude": -0.304967165,
   "charge_points": 3
 },
 {
   "Town": "Sutton",
   "Latitude": 51.364429,
   "Longitude": -0.191561,
   "charge_points": 0
 },
 {
   "Town": "Sutton",
   "Latitude": 51.357016,
   "Longitude": -0.191915,
   "charge_points": 0
 },
 {
   "Town": "Teddington",
   "Latitude": 51.42711621,
   "Longitude": -0.331124067,
   "charge_points": 1
 },
 {
   "Town": "Richmond",
   "Latitude": 51.46389049,
   "Longitude": -0.305959582,
   "charge_points": 1
 },
 {
   "Town": "Leamington Spa",
   "Latitude": 52.29251786,
   "Longitude": -1.538372076,
   "charge_points": 0
 },
 {
   "Town": "Birmingham",
   "Latitude": 52.4807294,
   "Longitude": -1.9000957,
   "charge_points": 0
 },
 {
   "Town": "Birmingham",
   "Latitude": 52.477837,
   "Longitude": -1.892903,
   "charge_points": 4
 },
 {
   "Town": "Coventry",
   "Latitude": 52.4099502,
   "Longitude": -1.5166815,
   "charge_points": 4
 },
 {
   "Town": "Trowbridge",
   "Latitude": 51.3194554,
   "Longitude": -2.220439911,
   "charge_points": 0
 },
 {
   "Town": "Colne",
   "Latitude": 53.860089,
   "Longitude": -2.166013,
   "charge_points": 2
 },
 {
   "Town": "Cheshunt",
   "Latitude": 51.70536849,
   "Longitude": -0.025601685,
   "charge_points": 2
 },
 {
   "Town": "Newcastle upon Tyne",
   "Latitude": 54.978947,
   "Longitude": -1.599306,
   "charge_points": 3
 },
 {
   "Town": "Maple Cross",
   "Latitude": 51.62514509,
   "Longitude": -0.505619388,
   "charge_points": 2
 },
 {
   "Town": "Solihull",
   "Latitude": 52.4453823,
   "Longitude": -1.7211528,
   "charge_points": 3
 },
 {
   "Town": "Hayling Island",
   "Latitude": 50.8188984,
   "Longitude": -0.9799567,
   "charge_points": 0
 },
 {
   "Town": "Putney",
   "Latitude": 51.4656948,
   "Longitude": -0.2310888,
   "charge_points": 0
 },
 {
   "Town": "Canary Wharf",
   "Latitude": 51.5046219,
   "Longitude": -0.0162947,
   "charge_points": 4
 },
 {
   "Town": "Canary Wharf",
   "Latitude": 51.5025768,
   "Longitude": -0.0187321,
   "charge_points": 0
 },
 {
   "Town": "Chelsea and Kensington",
   "Latitude": 51.5027465,
   "Longitude": -0.1955192,
   "charge_points": 0
 },
 {
   "Town": "Sheffield",
   "Latitude": 53.41337849,
   "Longitude": -1.414704323,
   "charge_points": 5
 },
 {
   "Town": "Hammersmith",
   "Latitude": 51.4941693,
   "Longitude": -0.2319748,
   "charge_points": 0
 },
 {
   "Town": "Woking",
   "Latitude": 51.3424519,
   "Longitude": -0.5396808,
   "charge_points": 0
 },
 {
   "Town": "Milton Keynes",
   "Latitude": 52.0643275,
   "Longitude": -0.7326382,
   "charge_points": 0
 },
 {
   "Town": "Uxbridge",
   "Latitude": 51.5423077,
   "Longitude": -0.4784368,
   "charge_points": 0
 },
 {
   "Town": "Portscatho",
   "Latitude": 50.1912303,
   "Longitude": -4.9810449,
   "charge_points": 3
 },
 {
   "Town": "Taunton",
   "Latitude": 51.0218382,
   "Longitude": -3.130624,
   "charge_points": 2
 },
 {
   "Town": "Taunton",
   "Latitude": 51.015495,
   "Longitude": -3.103711,
   "charge_points": 4
 },
 {
   "Town": "Taunton",
   "Latitude": 51.016105,
   "Longitude": -3.056533017,
   "charge_points": 2
 },
 {
   "Town": "Burnham-on-Sea",
   "Latitude": 51.26982227,
   "Longitude": -2.923366083,
   "charge_points": 4
 },
 {
   "Town": "Dursley",
   "Latitude": 51.65649066,
   "Longitude": -2.431250811,
   "charge_points": 5
 },
 {
   "Town": "Dursley",
   "Latitude": 51.6822665,
   "Longitude": -2.355259,
   "charge_points": 2
 },
 {
   "Town": "Ellesmere Port",
   "Latitude": 53.3033545,
   "Longitude": -2.9321157,
   "charge_points": 2
 },
 {
   "Town": "Southampton",
   "Latitude": 50.9216348,
   "Longitude": -1.4715916,
   "charge_points": 3
 },
 {
   "Town": "Winchester",
   "Latitude": 51.03274491,
   "Longitude": -1.328508854,
   "charge_points": 2
 },
 {
   "Town": "Nr Lambourn",
   "Latitude": 51.48388474,
   "Longitude": -1.557829881,
   "charge_points": 5
 },
 {
   "Town": "Nr Lambourn",
   "Latitude": 51.4805,
   "Longitude": -1.557,
   "charge_points": 5
 },
 {
   "Town": "Reading",
   "Latitude": 51.41912512,
   "Longitude": -0.985338643,
   "charge_points": 2
 },
 {
   "Town": "Oxford",
   "Latitude": 51.73841553,
   "Longitude": -1.096473699,
   "charge_points": 3
 },
 {
   "Town": "Newport Pagnell",
   "Latitude": 52.08369274,
   "Longitude": -0.747885704,
   "charge_points": 5
 },
 {
   "Town": "Newport Pagnell",
   "Latitude": 52.08295432,
   "Longitude": -0.748808384,
   "charge_points": 5
 },
 {
   "Town": "Milton Keynes",
   "Latitude": 52.042065,
   "Longitude": -0.760438,
   "charge_points": 6
 },
 {
   "Town": "Aldershot",
   "Latitude": 51.2484904,
   "Longitude": -0.7586864,
   "charge_points": 3
 },
 {
   "Town": "Guildford",
   "Latitude": 51.2466871,
   "Longitude": -0.5869315,
   "charge_points": 2
 },
 {
   "Town": "Hove",
   "Latitude": 50.8246433,
   "Longitude": -0.168133,
   "charge_points": 1
 },
 {
   "Town": "Worthing",
   "Latitude": 50.8289089,
   "Longitude": -0.3624908,
   "charge_points": 1
 },
 {
   "Town": "Worthing",
   "Latitude": 50.8173833,
   "Longitude": -0.3499895,
   "charge_points": 3
 },
 {
   "Town": "Lancing",
   "Latitude": 50.8219491,
   "Longitude": -0.3352333,
   "charge_points": 1
 },
 {
   "Town": "Gatwick",
   "Latitude": 51.156806,
   "Longitude": -0.159442,
   "charge_points": 2
 },
 {
   "Town": "Gatwick",
   "Latitude": 51.1611186,
   "Longitude": -0.1775906,
   "charge_points": 4
 },
 {
   "Town": "Weybridge",
   "Latitude": 51.3547691,
   "Longitude": -0.4676822,
   "charge_points": 1
 },
 {
   "Town": "Watford",
   "Latitude": 51.65702994,
   "Longitude": -0.41773176,
   "charge_points": 3
 },
 {
   "Town": "Hemel Hempstead",
   "Latitude": 51.771549,
   "Longitude": -0.445794,
   "charge_points": 2
 },
 {
   "Town": "Hayes",
   "Latitude": 51.5130806,
   "Longitude": -0.3926104,
   "charge_points": 1
 },
 {
   "Town": "Harrow",
   "Latitude": 51.5890385,
   "Longitude": -0.3339929,
   "charge_points": 2
 },
 {
   "Town": "Kingston Upon Thames",
   "Latitude": 51.4076327,
   "Longitude": -0.3042598,
   "charge_points": 4
 },
 {
   "Town": "Kingston Upon Thames",
   "Latitude": 51.4110965,
   "Longitude": -0.2907586,
   "charge_points": 2
 },
 {
   "Town": "Sutton",
   "Latitude": 51.372109,
   "Longitude": -0.225704,
   "charge_points": 2
 },
 {
   "Town": "Roehampton",
   "Latitude": 51.43925,
   "Longitude": -0.246787,
   "charge_points": 2
 },
 {
   "Town": "Richmond",
   "Latitude": 51.46268399,
   "Longitude": -0.300836563,
   "charge_points": 2
 },
 {
   "Town": "Brentford",
   "Latitude": 51.491921,
   "Longitude": -0.300702,
   "charge_points": 1
 },
 {
   "Town": "London",
   "Latitude": 51.523591,
   "Longitude": -0.278876,
   "charge_points": 4
 },
 {
   "Town": "Brent ",
   "Latitude": 51.5354162,
   "Longitude": -0.2468722,
   "charge_points": 2
 },
 {
   "Town": "Brent",
   "Latitude": 51.5535974,
   "Longitude": -0.2968468,
   "charge_points": 2
 },
 {
   "Town": "Brent",
   "Latitude": 51.5649174,
   "Longitude": -0.2758205,
   "charge_points": 2
 },
 {
   "Town": "London",
   "Latitude": 51.594002,
   "Longitude": -0.26112,
   "charge_points": 2
 },
 {
   "Town": "Barnet",
   "Latitude": 51.5955687,
   "Longitude": -0.2621857,
   "charge_points": 3
 },
 {
   "Town": "Barnet",
   "Latitude": 51.64948811,
   "Longitude": -0.193312168,
   "charge_points": 8
 },
 {
   "Town": "Potters Bar",
   "Latitude": 51.68709163,
   "Longitude": -0.221783817,
   "charge_points": 4
 },
 {
   "Town": "Kensington",
   "Latitude": 51.5016873,
   "Longitude": -0.1895541,
   "charge_points": 1
 },
 {
   "Town": "Westminster",
   "Latitude": 51.515804,
   "Longitude": -0.1836473,
   "charge_points": 1
 },
 {
   "Town": "Wandsworth",
   "Latitude": 51.459766,
   "Longitude": -0.2184345,
   "charge_points": 7
 },
 {
   "Town": "Wandsworth",
   "Latitude": 51.4543751,
   "Longitude": -0.1917144,
   "charge_points": 2
 },
 {
   "Town": "Wandsworth",
   "Latitude": 51.465221,
   "Longitude": -0.171681304,
   "charge_points": 12
 },
 {
   "Town": "Purley",
   "Latitude": 51.3376961,
   "Longitude": -0.1141741,
   "charge_points": 5
 },
 {
   "Town": "London",
   "Latitude": 51.440645,
   "Longitude": -0.055301,
   "charge_points": 8
 },
 {
   "Town": "Lewisham",
   "Latitude": 51.4461883,
   "Longitude": -0.0206127,
   "charge_points": 10
 },
 {
   "Town": "Greenwich",
   "Latitude": 51.4499171,
   "Longitude": 0.0594406,
   "charge_points": 4
 },
 {
   "Town": "Greenwich",
   "Latitude": 51.4505325,
   "Longitude": 0.0770562,
   "charge_points": 1
 },
 {
   "Town": "Barking and dagenham",
   "Latitude": 51.52825,
   "Longitude": 0.1640101,
   "charge_points": 1
 },
 {
   "Town": "Greenwich",
   "Latitude": 51.49349,
   "Longitude": 0.0725544,
   "charge_points": 2
 },
 {
   "Town": "Lewisham",
   "Latitude": 51.4588141,
   "Longitude": -0.012106,
   "charge_points": 10
 },
 {
   "Town": "Lewisham",
   "Latitude": 51.4605189,
   "Longitude": -0.0087065,
   "charge_points": 12
 },
 {
   "Town": "Lewisham",
   "Latitude": 51.4667303,
   "Longitude": 0.0098921,
   "charge_points": 2
 },
 {
   "Town": "Greenwich",
   "Latitude": 51.4746423,
   "Longitude": -0.0126995,
   "charge_points": 4
 },
 {
   "Town": "Greenwich",
   "Latitude": 51.4802749,
   "Longitude": -0.0123539,
   "charge_points": 4
 },
 {
   "Town": "Greenwich",
   "Latitude": 51.4827075,
   "Longitude": -0.0131555,
   "charge_points": 6
 },
 {
   "Town": "Tower Hamlets",
   "Latitude": 51.4889556,
   "Longitude": -0.0082744,
   "charge_points": 1
 },
 {
   "Town": "Tower Hamlets",
   "Latitude": 51.4948872,
   "Longitude": -0.0149597,
   "charge_points": 2
 },
 {
   "Town": "Tower Hamlets",
   "Latitude": 51.5002819,
   "Longitude": -0.0101291,
   "charge_points": 2
 },
 {
   "Town": "Greenwich",
   "Latitude": 51.5002975,
   "Longitude": 0.0032136,
   "charge_points": 8
 },
 {
   "Town": "Haringey",
   "Latitude": 51.5881811,
   "Longitude": -0.0740528,
   "charge_points": 2
 },
 {
   "Town": "Islington",
   "Latitude": 51.56674699,
   "Longitude": -0.139839649,
   "charge_points": 8
 },
 {
   "Town": "Haringey",
   "Latitude": 51.5697659,
   "Longitude": -0.1387849,
   "charge_points": 1
 },
 {
   "Town": "Islington",
   "Latitude": 51.5530268,
   "Longitude": -0.129472,
   "charge_points": 1
 },
 {
   "Town": "Camden",
   "Latitude": 51.5405185,
   "Longitude": -0.1408004,
   "charge_points": 4
 },
 {
   "Town": "Islington",
   "Latitude": 51.5425155,
   "Longitude": -0.113281477,
   "charge_points": 1
 },
 {
   "Town": "Islington",
   "Latitude": 51.54962486,
   "Longitude": -0.095835511,
   "charge_points": 1
 },
 {
   "Town": "Hackney",
   "Latitude": 51.5353,
   "Longitude": -0.0836252,
   "charge_points": 2
 },
 {
   "Town": "Lambeth",
   "Latitude": 51.5052551,
   "Longitude": -0.1168898,
   "charge_points": 1
 },
 {
   "Town": "Westminster",
   "Latitude": 51.4877184,
   "Longitude": -0.1427474,
   "charge_points": 6
 },
 {
   "Town": "Camden",
   "Latitude": 51.5234154,
   "Longitude": -0.1261449,
   "charge_points": 4
 },
 {
   "Town": "Camden",
   "Latitude": 51.5181387,
   "Longitude": -0.1255737,
   "charge_points": 2
 },
 {
   "Town": "Luton",
   "Latitude": 51.9117753,
   "Longitude": -0.3880388,
   "charge_points": 3
 },
 {
   "Town": "Ipswich",
   "Latitude": 52.05901171,
   "Longitude": 1.278989911,
   "charge_points": 2
 },
 {
   "Town": "Westleton",
   "Latitude": 52.24750974,
   "Longitude": 1.618682955,
   "charge_points": 2
 },
 {
   "Town": "Norwich",
   "Latitude": 52.6612517,
   "Longitude": 1.2827268,
   "charge_points": 3
 },
 {
   "Town": "Norwich",
   "Latitude": 52.5548818,
   "Longitude": 1.1794263,
   "charge_points": 3
 },
 {
   "Town": "Corby",
   "Latitude": 52.513889,
   "Longitude": -0.661111,
   "charge_points": 16
 },
 {
   "Town": "Corby",
   "Latitude": 52.50624,
   "Longitude": -0.64221,
   "charge_points": 5
 },
 {
   "Town": "Corby",
   "Latitude": 52.48702541,
   "Longitude": -0.706077337,
   "charge_points": 8
 },
 {
   "Town": "Tamworth",
   "Latitude": 52.620843,
   "Longitude": -1.7309562,
   "charge_points": 1
 },
 {
   "Town": "Solihull",
   "Latitude": 52.432874,
   "Longitude": -1.799554,
   "charge_points": 1
 },
 {
   "Town": "Birmingham",
   "Latitude": 52.45246242,
   "Longitude": -1.833883054,
   "charge_points": 3
 },
 {
   "Town": "Alvechurch",
   "Latitude": 52.36361148,
   "Longitude": -1.946382523,
   "charge_points": 6
 },
 {
   "Town": "Keele",
   "Latitude": 52.99382019,
   "Longitude": -2.289726734,
   "charge_points": 7
 },
 {
   "Town": "Stockport",
   "Latitude": 53.3998301,
   "Longitude": -2.2032976,
   "charge_points": 2
 },
 {
   "Town": "Chorley",
   "Latitude": 53.631417,
   "Longitude": -2.689302,
   "charge_points": 6
 },
 {
   "Town": "Chorley",
   "Latitude": 53.63130523,
   "Longitude": -2.691832781,
   "charge_points": 6
 },
 {
   "Town": "Bolton",
   "Latitude": 53.54657423,
   "Longitude": -2.525407076,
   "charge_points": 2
 },
 {
   "Town": "Wakefeild",
   "Latitude": 53.69291986,
   "Longitude": -1.509658001,
   "charge_points": 1
 },
 {
   "Town": "Leeds",
   "Latitude": 53.8053309,
   "Longitude": -1.524461,
   "charge_points": 2
 },
 {
   "Town": "Durham",
   "Latitude": 54.7792591,
   "Longitude": -1.578053,
   "charge_points": 1
 },
 {
   "Town": "Sunderland",
   "Latitude": 54.90811,
   "Longitude": -1.384184,
   "charge_points": 3
 },
 {
   "Town": "Newquay",
   "Latitude": 50.372223,
   "Longitude": -5.023419,
   "charge_points": 1
 },
 {
   "Town": "Basingstoke and Deane",
   "Latitude": 51.23056371,
   "Longitude": -1.340770604,
   "charge_points": 1
 },
 {
   "Town": "Bury St Edmunds",
   "Latitude": 52.2458941,
   "Longitude": 0.706424117,
   "charge_points": 2
 },
 {
   "Town": "Ashton Hayes",
   "Latitude": 53.216273,
   "Longitude": -2.744187,
   "charge_points": 2
 },
 {
   "Town": "Kensington",
   "Latitude": 51.50108931,
   "Longitude": -0.194621086,
   "charge_points": 6
 },
 {
   "Town": "Bath",
   "Latitude": 51.27647,
   "Longitude": -2.472012,
   "charge_points": 2
 },
 {
   "Town": "Stafford",
   "Latitude": 52.755705,
   "Longitude": -2.096879,
   "charge_points": 4
 },
 {
   "Town": "Nr Ambleside",
   "Latitude": 54.436387,
   "Longitude": -3.040393,
   "charge_points": 2
 },
 {
   "Town": "Winkleigh",
   "Latitude": 50.87383864,
   "Longitude": -3.925369978,
   "charge_points": 2
 },
 {
   "Town": "Exmoor",
   "Latitude": 51.227584,
   "Longitude": -3.833499,
   "charge_points": 2
 },
 {
   "Town": "Bude",
   "Latitude": 50.767642,
   "Longitude": -4.542358,
   "charge_points": 1
 },
 {
   "Town": "Ilfracombe",
   "Latitude": 51.187945,
   "Longitude": -4.089684,
   "charge_points": 2
 },
 {
   "Town": "Helston",
   "Latitude": 50.071544,
   "Longitude": -5.186654,
   "charge_points": 2
 },
 {
   "Town": "London",
   "Latitude": 51.512195,
   "Longitude": -0.175331,
   "charge_points": 2
 },
 {
   "Town": "Camelford",
   "Latitude": 50.65343066,
   "Longitude": -4.626373114,
   "charge_points": 2
 },
 {
   "Town": "Attleborough",
   "Latitude": 52.521865,
   "Longitude": 1.0263,
   "charge_points": 3
 },
 {
   "Town": "Cheltenham",
   "Latitude": 51.896194,
   "Longitude": -2.08414,
   "charge_points": 2
 },
 {
   "Town": "Whitley Bay",
   "Latitude": 55.042422,
   "Longitude": -1.441182,
   "charge_points": 1
 },
 {
   "Town": "",
   "Latitude": 50.35231255,
   "Longitude": -4.51209421,
   "charge_points": 5
 },
 {
   "Town": "Hull",
   "Latitude": 53.745442,
   "Longitude": -0.347555,
   "charge_points": 4
 },
 {
   "Town": "Hayes",
   "Latitude": 51.481229,
   "Longitude": -0.435091,
   "charge_points": 3
 },
 {
   "Town": "Wigan",
   "Latitude": 53.546389,
   "Longitude": -2.628832,
   "charge_points": 4
 },
 {
   "Town": "Stratford upon Avon",
   "Latitude": 52.190685,
   "Longitude": -1.704784,
   "charge_points": 2
 },
 {
   "Town": "Glastonbury",
   "Latitude": 51.142236,
   "Longitude": -2.698669,
   "charge_points": 2
 },
 {
   "Town": "Ashbourne",
   "Latitude": 53.062191,
   "Longitude": -1.80123,
   "charge_points": 2
 },
 {
   "Town": "Devizes",
   "Latitude": 51.284392,
   "Longitude": -2.000854,
   "charge_points": 2
 },
 {
   "Town": "Ivybridge",
   "Latitude": 50.402427,
   "Longitude": -3.879024,
   "charge_points": 2
 },
 {
   "Town": "Helston",
   "Latitude": 50.12899,
   "Longitude": -5.283828,
   "charge_points": 3
 },
 {
   "Town": "Holmrook",
   "Latitude": 54.392181,
   "Longitude": -3.282815,
   "charge_points": 2
 },
 {
   "Town": "",
   "Latitude": 50.965331,
   "Longitude": -4.02285,
   "charge_points": 3
 },
 {
   "Town": "Uttoxeter",
   "Latitude": 52.899044,
   "Longitude": -1.863268,
   "charge_points": 2
 },
 {
   "Town": "Ashford",
   "Latitude": 51.157839,
   "Longitude": 0.865377,
   "charge_points": 4
 },
 {
   "Town": "Mawgan Porth",
   "Latitude": 50.46841665,
   "Longitude": -5.030240861,
   "charge_points": 1
 },
 {
   "Town": "Corby",
   "Latitude": 52.555012,
   "Longitude": -0.603511,
   "charge_points": 2
 },
 {
   "Town": "Shrewsbury",
   "Latitude": 52.857315,
   "Longitude": -2.642852,
   "charge_points": 2
 },
 {
   "Town": "London",
   "Latitude": 51.502441,
   "Longitude": -0.216425,
   "charge_points": 2
 },
 {
   "Town": "Portland",
   "Latitude": 50.555309,
   "Longitude": -2.441053,
   "charge_points": 2
 },
 {
   "Town": "Bodmin",
   "Latitude": 50.472591,
   "Longitude": -4.71558,
   "charge_points": 2
 },
 {
   "Town": "Matlock",
   "Latitude": 53.099418,
   "Longitude": -1.679428,
   "charge_points": 3
 },
 {
   "Town": "Wadebridge",
   "Latitude": 50.54218,
   "Longitude": -4.825331,
   "charge_points": 2
 },
 {
   "Town": "Glenridding",
   "Latitude": 54.541771,
   "Longitude": -2.947732,
   "charge_points": 2
 },
 {
   "Town": "Bodmin",
   "Latitude": 50.566466,
   "Longitude": -4.801733,
   "charge_points": 2
 },
 {
   "Town": "Bodmin",
   "Latitude": 50.565342,
   "Longitude": -4.801841,
   "charge_points": 2
 },
 {
   "Town": "Totnes",
   "Latitude": 50.451427,
   "Longitude": -3.693979,
   "charge_points": 2
 },
 {
   "Town": "Penzance",
   "Latitude": 50.088453,
   "Longitude": -5.65516,
   "charge_points": 2
 },
 {
   "Town": "Bristol",
   "Latitude": 51.50798,
   "Longitude": -2.630708,
   "charge_points": 3
 },
 {
   "Town": "York",
   "Latitude": 53.9572,
   "Longitude": -1.0705,
   "charge_points": 2
 },
 {
   "Town": "New Milton",
   "Latitude": 50.781461,
   "Longitude": -1.657852,
   "charge_points": 2
 },
 {
   "Town": "Brook",
   "Latitude": 50.919523,
   "Longitude": -1.619995,
   "charge_points": 2
 },
 {
   "Town": "Stoke on Trent",
   "Latitude": 53.070722,
   "Longitude": -2.117104,
   "charge_points": 1
 },
 {
   "Town": "Stoke on Trent",
   "Latitude": 53.077332,
   "Longitude": -2.113674,
   "charge_points": 1
 },
 {
   "Town": "Abingdon",
   "Latitude": 51.67234198,
   "Longitude": -1.278529912,
   "charge_points": 5
 },
 {
   "Town": "Solihull",
   "Latitude": 52.412459,
   "Longitude": -1.784967,
   "charge_points": 2
 },
 {
   "Town": "Swindon",
   "Latitude": 51.549004,
   "Longitude": -1.846025,
   "charge_points": 2
 },
 {
   "Town": "Wellington",
   "Latitude": 50.9835047,
   "Longitude": -3.2042006,
   "charge_points": 1
 },
 {
   "Town": "High Bickington",
   "Latitude": 50.966517,
   "Longitude": -3.994659,
   "charge_points": 2
 },
 {
   "Town": "Diseworth",
   "Latitude": 52.807043,
   "Longitude": -1.378158,
   "charge_points": 2
 },
 {
   "Town": "Diseworth",
   "Latitude": 52.807863,
   "Longitude": -1.358224,
   "charge_points": 2
 },
 {
   "Town": "Salisbury",
   "Latitude": 51.095865,
   "Longitude": -1.815421,
   "charge_points": 2
 },
 {
   "Town": "Rugeley",
   "Latitude": 52.781671,
   "Longitude": -1.926259,
   "charge_points": 2
 },
 {
   "Town": "Bidford on Avon",
   "Latitude": 52.144452,
   "Longitude": -1.850125,
   "charge_points": 2
 },
 {
   "Town": "Ravenglass",
   "Latitude": 54.354609,
   "Longitude": -3.380847,
   "charge_points": 2
 },
 {
   "Town": "Holton Heath, Poole",
   "Latitude": 50.7199791,
   "Longitude": -2.0744876,
   "charge_points": 1
 },
 {
   "Town": "Truro",
   "Latitude": 50.292647,
   "Longitude": -4.958541,
   "charge_points": 2
 },
 {
   "Town": "Truro",
   "Latitude": 50.326542,
   "Longitude": -4.941157,
   "charge_points": 2
 },
 {
   "Town": "Stansted",
   "Latitude": 51.892266,
   "Longitude": 0.264648,
   "charge_points": 2
 },
 {
   "Town": "Chester",
   "Latitude": 53.193863,
   "Longitude": -2.884295,
   "charge_points": 2
 },
 {
   "Town": "Darlington",
   "Latitude": 54.56442248,
   "Longitude": -1.64405592,
   "charge_points": 2
 },
 {
   "Town": "Banbury",
   "Latitude": 52.058006,
   "Longitude": -1.337823,
   "charge_points": 2
 },
 {
   "Town": "Kirkby Stephen",
   "Latitude": 54.519567,
   "Longitude": -2.301887,
   "charge_points": 2
 },
 {
   "Town": "York",
   "Latitude": 53.941761,
   "Longitude": -1.104243,
   "charge_points": 1
 },
 {
   "Town": "Broadway",
   "Latitude": 52.030885,
   "Longitude": -1.866918,
   "charge_points": 2
 },
 {
   "Town": "Boscastle",
   "Latitude": 50.683682,
   "Longitude": -4.693889,
   "charge_points": 2
 },
 {
   "Town": "York",
   "Latitude": 53.967783,
   "Longitude": -1.091323,
   "charge_points": 2
 },
 {
   "Town": "Truro",
   "Latitude": 50.314636,
   "Longitude": -5.138646,
   "charge_points": 2
 },
 {
   "Town": "Lowick",
   "Latitude": 55.612647,
   "Longitude": -1.948538,
   "charge_points": 2
 },
 {
   "Town": "Sunderland",
   "Latitude": 54.9237358,
   "Longitude": -1.4691559,
   "charge_points": 3
 },
 {
   "Town": "Norwich",
   "Latitude": 52.652377,
   "Longitude": 1.260204,
   "charge_points": 2
 },
 {
   "Town": "South Cliff",
   "Latitude": 54.2768,
   "Longitude": -0.399782,
   "charge_points": 3
 },
 {
   "Town": "Sutton Coldfield",
   "Latitude": 52.58262458,
   "Longitude": -1.811793222,
   "charge_points": 1
 },
 {
   "Town": "Oakham",
   "Latitude": 52.715734,
   "Longitude": -0.596696,
   "charge_points": 2
 },
 {
   "Town": "Uppingham",
   "Latitude": 52.588368,
   "Longitude": -0.720602,
   "charge_points": 2
 },
 {
   "Town": "Stoke Poges",
   "Latitude": 51.538304,
   "Longitude": -0.595814,
   "charge_points": 4
 },
 {
   "Town": "Portsmouth",
   "Latitude": 50.8010219,
   "Longitude": -1.0876123,
   "charge_points": 4
 },
 {
   "Town": "Portsmouth",
   "Latitude": 50.7963663,
   "Longitude": -1.1065603,
   "charge_points": 6
 },
 {
   "Town": "Portsmouth",
   "Latitude": 50.8211974,
   "Longitude": -1.0452367,
   "charge_points": 2
 },
 {
   "Town": "Chichester",
   "Latitude": 50.8330337,
   "Longitude": -0.7894117,
   "charge_points": 4
 },
 {
   "Town": "Southampton",
   "Latitude": 50.9056985,
   "Longitude": -1.4064326,
   "charge_points": 2
 },
 {
   "Town": "Southampton",
   "Latitude": 50.8774746,
   "Longitude": -1.5593395,
   "charge_points": 0
 },
 {
   "Town": "Near Alston",
   "Latitude": 54.788527,
   "Longitude": -2.343543,
   "charge_points": 2
 },
 {
   "Town": "London",
   "Latitude": 51.49035204,
   "Longitude": -0.285451412,
   "charge_points": 6
 },
 {
   "Town": "London",
   "Latitude": 51.363738,
   "Longitude": -0.299173,
   "charge_points": 2
 },
 {
   "Town": "Coventry",
   "Latitude": 52.414815,
   "Longitude": -1.50256,
   "charge_points": 2
 },
 {
   "Town": "Stoke on Trent",
   "Latitude": 53.022654,
   "Longitude": -2.176044,
   "charge_points": 6
 },
 {
   "Town": "London",
   "Latitude": 51.529518,
   "Longitude": -0.122535,
   "charge_points": 2
 },
 {
   "Town": "London",
   "Latitude": 51.49584,
   "Longitude": 0.013564,
   "charge_points": 4
 },
 {
   "Town": "Camden",
   "Latitude": 51.538454,
   "Longitude": -0.141029,
   "charge_points": 3
 },
 {
   "Town": "London",
   "Latitude": 51.47229,
   "Longitude": -0.451999,
   "charge_points": 4
 },
 {
   "Town": "London",
   "Latitude": 51.55158232,
   "Longitude": -0.46779871,
   "charge_points": 2
 },
 {
   "Town": "Thamesmead",
   "Latitude": 51.496067,
   "Longitude": 0.093083,
   "charge_points": 2
 },
 {
   "Town": "London",
   "Latitude": 51.319156,
   "Longitude": -0.14025,
   "charge_points": 1
 },
 {
   "Town": "London",
   "Latitude": 51.50376071,
   "Longitude": -0.082118511,
   "charge_points": 2
 },
 {
   "Town": "Great Malvern",
   "Latitude": 52.10497,
   "Longitude": -2.311893,
   "charge_points": 1
 },
 {
   "Town": "London",
   "Latitude": 51.482995,
   "Longitude": -0.453667,
   "charge_points": 2
 },
 {
   "Town": "Mill Hill",
   "Latitude": 51.604041,
   "Longitude": -0.239335,
   "charge_points": 5
 },
 {
   "Town": "Nuneaton",
   "Latitude": 52.521715,
   "Longitude": -1.46704,
   "charge_points": 2
 },
 {
   "Town": "London",
   "Latitude": 51.49788343,
   "Longitude": 0.006930828,
   "charge_points": 11
 },
 {
   "Town": "London",
   "Latitude": 51.573458,
   "Longitude": -0.295412,
   "charge_points": 2
 },
 {
   "Town": "London",
   "Latitude": 51.590627,
   "Longitude": -0.147201,
   "charge_points": 2
 },
 {
   "Town": "London",
   "Latitude": 51.50229,
   "Longitude": -0.073829,
   "charge_points": 10
 },
 {
   "Town": "Birmingham",
   "Latitude": 52.514489,
   "Longitude": -1.82362,
   "charge_points": 2
 },
 {
   "Town": "Birmingham",
   "Latitude": 52.397141,
   "Longitude": -1.985728,
   "charge_points": 4
 },
 {
   "Town": "Startford upon Avon",
   "Latitude": 52.2074,
   "Longitude": -1.7307,
   "charge_points": 6
 },
 {
   "Town": "London",
   "Latitude": 51.59001,
   "Longitude": -0.142303,
   "charge_points": 2
 },
 {
   "Town": "London",
   "Latitude": 51.503518,
   "Longitude": -0.106169,
   "charge_points": 2
 },
 {
   "Town": "London",
   "Latitude": 51.3757452,
   "Longitude": -0.275081992,
   "charge_points": 2
 },
 {
   "Town": "London",
   "Latitude": 51.540812,
   "Longitude": -0.19178,
   "charge_points": 2
 },
 {
   "Town": "Alnwick",
   "Latitude": 55.402194,
   "Longitude": -1.696511,
   "charge_points": 4
 },
 {
   "Town": "Pershore",
   "Latitude": 52.114662,
   "Longitude": -2.078315,
   "charge_points": 3
 },
 {
   "Town": "Bournemouth",
   "Latitude": 50.71938,
   "Longitude": -1.868279,
   "charge_points": 2
 },
 {
   "Town": "",
   "Latitude": 50.173654,
   "Longitude": -5.22813,
   "charge_points": 2
 },
 {
   "Town": "",
   "Latitude": 50.359595,
   "Longitude": -4.742785,
   "charge_points": 3
 },
 {
   "Town": "Ambleside",
   "Latitude": 54.46678,
   "Longitude": -3.032277,
   "charge_points": 1
 },
 {
   "Town": "Backwell",
   "Latitude": 51.40536,
   "Longitude": -2.766074,
   "charge_points": 2
 },
 {
   "Town": "Castle Donington",
   "Latitude": 52.82482515,
   "Longitude": -1.386069556,
   "charge_points": 4
 },
 {
   "Town": "Lyndhurst ",
   "Latitude": 50.874479,
   "Longitude": -1.593357,
   "charge_points": 2
 },
 {
   "Town": "Doncaster",
   "Latitude": 53.51563344,
   "Longitude": -1.102497709,
   "charge_points": 2
 },
 {
   "Town": "Lyndhurst",
   "Latitude": 50.872662,
   "Longitude": -1.575196,
   "charge_points": 2
 },
 {
   "Town": "Bishop Auckland",
   "Latitude": 54.665489,
   "Longitude": -1.677595,
   "charge_points": 4
 },
 {
   "Town": "Redcar",
   "Latitude": 54.591627,
   "Longitude": -1.01794,
   "charge_points": 2
 },
 {
   "Town": "Hayes",
   "Latitude": 51.481529,
   "Longitude": -0.441432,
   "charge_points": 2
 },
 {
   "Town": "Hexham",
   "Latitude": 54.8569687,
   "Longitude": -2.3558541,
   "charge_points": 0
 },
 {
   "Town": "Rickmansworth",
   "Latitude": 51.64856279,
   "Longitude": -0.448014736,
   "charge_points": 2
 },
 {
   "Town": "Luton",
   "Latitude": 51.87306,
   "Longitude": -0.390034,
   "charge_points": 4
 },
 {
   "Town": "Norwich",
   "Latitude": 52.6280813,
   "Longitude": 1.29057169,
   "charge_points": 4
 },
 {
   "Town": "St Albans",
   "Latitude": 51.75234,
   "Longitude": -0.340132,
   "charge_points": 2
 },
 {
   "Town": "Bedford",
   "Latitude": 52.201717,
   "Longitude": -0.291732,
   "charge_points": 2
 },
 {
   "Town": "Marhamchurch",
   "Latitude": 50.803304,
   "Longitude": -4.517205,
   "charge_points": 4
 },
 {
   "Town": "Leicester",
   "Latitude": 52.622852,
   "Longitude": -1.131778,
   "charge_points": 2
 },
 {
   "Town": "Chesterfield",
   "Latitude": 53.250608,
   "Longitude": -1.427988,
   "charge_points": 2
 },
 {
   "Town": "Ilkeston",
   "Latitude": 52.966772,
   "Longitude": -1.314395,
   "charge_points": 2
 },
 {
   "Town": "Birmingham",
   "Latitude": 52.509384,
   "Longitude": -1.819606,
   "charge_points": 2
 },
 {
   "Town": "Stafford",
   "Latitude": 52.801989,
   "Longitude": -2.111742,
   "charge_points": 2
 },
 {
   "Town": "Near Frampton Cotterell",
   "Latitude": 51.536317,
   "Longitude": -2.454886,
   "charge_points": 2
 },
 {
   "Town": "Sevenoaks",
   "Latitude": 51.326223,
   "Longitude": 0.328054,
   "charge_points": 2
 },
 {
   "Town": "Portsmouth",
   "Latitude": 50.841433,
   "Longitude": -1.0793,
   "charge_points": 2
 },
 {
   "Town": "Saltash",
   "Latitude": 50.42017,
   "Longitude": -4.23398,
   "charge_points": 4
 },
 {
   "Town": "Great Missenden",
   "Latitude": 51.70449,
   "Longitude": -0.707449,
   "charge_points": 2
 },
 {
   "Town": "Chalfont St Peter",
   "Latitude": 51.609,
   "Longitude": -0.557039,
   "charge_points": 2
 },
 {
   "Town": "Amersham",
   "Latitude": 51.67422183,
   "Longitude": -0.605487227,
   "charge_points": 6
 },
 {
   "Town": "Chesham",
   "Latitude": 51.70319431,
   "Longitude": -0.615009069,
   "charge_points": 2
 },
 {
   "Town": "Aylesbury",
   "Latitude": 51.84031667,
   "Longitude": -0.918995,
   "charge_points": 6
 },
 {
   "Town": "Milton Keynes",
   "Latitude": 52.042797,
   "Longitude": -0.759231,
   "charge_points": 2
 },
 {
   "Town": "Milton Keynes",
   "Latitude": 52.042831,
   "Longitude": -0.760908,
   "charge_points": 6
 },
 {
   "Town": " Stoke on Trent",
   "Latitude": 53.0268,
   "Longitude": -2.18876,
   "charge_points": 2
 },
 {
   "Town": "Poole",
   "Latitude": 50.720389,
   "Longitude": -2.007781,
   "charge_points": 2
 },
 {
   "Town": "Bedford",
   "Latitude": 52.13183,
   "Longitude": -0.47016,
   "charge_points": 3
 },
 {
   "Town": "Bedford",
   "Latitude": 52.13948,
   "Longitude": -0.46689,
   "charge_points": 4
 },
 {
   "Town": "Luton",
   "Latitude": 51.89529,
   "Longitude": -0.474394,
   "charge_points": 2
 },
 {
   "Town": "Bedford",
   "Latitude": 52.13977686,
   "Longitude": -0.461913943,
   "charge_points": 3
 },
 {
   "Town": "Falfield ",
   "Latitude": 51.6447251,
   "Longitude": -2.4550892,
   "charge_points": 1
 },
 {
   "Town": "Cheltenham",
   "Latitude": 51.896402,
   "Longitude": -2.082775,
   "charge_points": 2
 },
 {
   "Town": "Clitheroe",
   "Latitude": 53.822257,
   "Longitude": -2.43171,
   "charge_points": 2
 },
 {
   "Town": "Grimsby",
   "Latitude": 53.566401,
   "Longitude": -0.102271,
   "charge_points": 2
 },
 {
   "Town": "",
   "Latitude": 52.061066,
   "Longitude": -0.478275,
   "charge_points": 2
 },
 {
   "Town": "Lyme Regis",
   "Latitude": 50.724582,
   "Longitude": -2.938,
   "charge_points": 2
 },
 {
   "Town": "York",
   "Latitude": 53.970868,
   "Longitude": -1.098695,
   "charge_points": 2
 },
 {
   "Town": "Swindon",
   "Latitude": 51.574692,
   "Longitude": -1.8325405,
   "charge_points": 3
 },
 {
   "Town": "Warwick",
   "Latitude": 52.2843696,
   "Longitude": -1.578865,
   "charge_points": 1
 },
 {
   "Town": "Liverpool",
   "Latitude": 53.4873835,
   "Longitude": -3.0317591,
   "charge_points": 1
 },
 {
   "Town": "Leicester",
   "Latitude": 52.654311,
   "Longitude": -1.136517,
   "charge_points": 2
 },
 {
   "Town": "Shaldon",
   "Latitude": 50.536879,
   "Longitude": -3.499728,
   "charge_points": 2
 },
 {
   "Town": "Otterburn",
   "Latitude": 55.3395957,
   "Longitude": -2.4550333,
   "charge_points": 4
 },
 {
   "Town": "Boscastle",
   "Latitude": 50.6931828,
   "Longitude": -4.6526175,
   "charge_points": 4
 },
 {
   "Town": "Birmingham",
   "Latitude": 52.4820129,
   "Longitude": -1.8964653,
   "charge_points": 2
 },
 {
   "Town": "",
   "Latitude": 51.49251458,
   "Longitude": -0.195222894,
   "charge_points": 2
 },
 {
   "Town": "Woking",
   "Latitude": 51.3139844,
   "Longitude": -0.4728724,
   "charge_points": 4
 },
 {
   "Town": "Warwick",
   "Latitude": 52.288628,
   "Longitude": -1.573068,
   "charge_points": 2
 },
 {
   "Town": "Skegness",
   "Latitude": 53.156848,
   "Longitude": 0.307362,
   "charge_points": 1
 },
 {
   "Town": "Buxton",
   "Latitude": 53.2564737,
   "Longitude": -1.908495,
   "charge_points": 2
 },
 {
   "Town": "Dursley",
   "Latitude": 51.656944,
   "Longitude": -2.4275,
   "charge_points": 5
 },
 {
   "Town": "Nr Corsham",
   "Latitude": 51.416176,
   "Longitude": -2.2665094,
   "charge_points": 2
 },
 {
   "Town": "Loughborough",
   "Latitude": 52.759607,
   "Longitude": -1.245271,
   "charge_points": 4
 },
 {
   "Town": "Weston Super Mare",
   "Latitude": 51.350299,
   "Longitude": -2.981195,
   "charge_points": 2
 },
 {
   "Town": "Leicestershire",
   "Latitude": 52.494319,
   "Longitude": -1.257026,
   "charge_points": 2
 },
 {
   "Town": "Irton",
   "Latitude": 54.392855,
   "Longitude": -3.379529,
   "charge_points": 2
 },
 {
   "Town": "Pontefract",
   "Latitude": 53.634556,
   "Longitude": -1.288372,
   "charge_points": 2
 },
 {
   "Town": "",
   "Latitude": 54.852106,
   "Longitude": -1.8832187,
   "charge_points": 2
 },
 {
   "Town": "Ipswich",
   "Latitude": 52.03431044,
   "Longitude": 1.203346252,
   "charge_points": 4
 },
 {
   "Town": "St Albans",
   "Latitude": 51.74635589,
   "Longitude": -0.360285044,
   "charge_points": 4
 },
 {
   "Town": "Chester",
   "Latitude": 53.1854161,
   "Longitude": -2.894695,
   "charge_points": 1
 },
 {
   "Town": "",
   "Latitude": 51.5014098,
   "Longitude": -0.1172406,
   "charge_points": 2
 },
 {
   "Town": "",
   "Latitude": 53.9625944,
   "Longitude": -1.0774226,
   "charge_points": 2
 },
 {
   "Town": "Ambleside",
   "Latitude": 54.4279131,
   "Longitude": -2.9622735,
   "charge_points": 2
 },
 {
   "Town": "Huntingdon",
   "Latitude": 52.335719,
   "Longitude": -0.229597,
   "charge_points": 4
 },
 {
   "Town": "Sheffield",
   "Latitude": 53.3259126,
   "Longitude": -1.3630653,
   "charge_points": 2
 },
 {
   "Town": "Harwich",
   "Latitude": 51.946998,
   "Longitude": 1.255108,
   "charge_points": 2
 },
 {
   "Town": "York",
   "Latitude": 53.9617385,
   "Longitude": -1.084258,
   "charge_points": 1
 },
 {
   "Town": "Ipswich",
   "Latitude": 52.02659076,
   "Longitude": 1.207712889,
   "charge_points": 2
 },
 {
   "Town": "Shefford",
   "Latitude": 52.035198,
   "Longitude": -0.36231,
   "charge_points": 2
 },
 {
   "Town": "Tiverton",
   "Latitude": 50.9047435,
   "Longitude": -3.4769165,
   "charge_points": 2
 },
 {
   "Town": "Wells",
   "Latitude": 51.209594,
   "Longitude": -2.64665,
   "charge_points": 1
 },
 {
   "Town": "Brayford",
   "Latitude": 51.097188,
   "Longitude": -3.8724807,
   "charge_points": 2
 },
 {
   "Town": "Hexham",
   "Latitude": 54.970072,
   "Longitude": -2.103003,
   "charge_points": 2
 },
 {
   "Town": "Loughborough",
   "Latitude": 52.778368,
   "Longitude": -1.218212,
   "charge_points": 3
 },
 {
   "Town": "Banbury",
   "Latitude": 52.0745008,
   "Longitude": -1.3923662,
   "charge_points": 1
 },
 {
   "Town": "Shrewsbury",
   "Latitude": 52.853637,
   "Longitude": -2.726712,
   "charge_points": 2
 },
 {
   "Town": "Nailsworth",
   "Latitude": 51.6988477,
   "Longitude": -2.2371318,
   "charge_points": 6
 },
 {
   "Town": "Bristol",
   "Latitude": 51.463836,
   "Longitude": -2.5759,
   "charge_points": 4
 },
 {
   "Town": "Aylesford",
   "Latitude": 51.2913235,
   "Longitude": 0.4696226,
   "charge_points": 2
 },
 {
   "Town": "Canterbury",
   "Latitude": 51.2770958,
   "Longitude": 1.0808901,
   "charge_points": 2
 },
 {
   "Town": "Milton Keynes",
   "Latitude": 52.037869,
   "Longitude": -0.776206,
   "charge_points": 3
 },
 {
   "Town": "Dorchester",
   "Latitude": 50.7757572,
   "Longitude": -2.6193718,
   "charge_points": 2
 },
 {
   "Town": "Sherbourne",
   "Latitude": 50.964888,
   "Longitude": -2.4929683,
   "charge_points": 1
 },
 {
   "Town": "Steyning",
   "Latitude": 50.8828941,
   "Longitude": -0.3113832,
   "charge_points": 2
 },
 {
   "Town": "Doncaster",
   "Latitude": 53.4789951,
   "Longitude": -1.0404831,
   "charge_points": 2
 },
 {
   "Town": "Warwick",
   "Latitude": 52.32386591,
   "Longitude": -1.558963319,
   "charge_points": 3
 },
 {
   "Town": "Old Hunstanton",
   "Latitude": 52.9581271,
   "Longitude": 0.5024304,
   "charge_points": 2
 },
 {
   "Town": "Ipswich",
   "Latitude": 52.06194381,
   "Longitude": 1.182280183,
   "charge_points": 1
 },
 {
   "Town": "Ashford",
   "Latitude": 51.131259,
   "Longitude": 0.8946503,
   "charge_points": 1
 },
 {
   "Town": "Marston Moretaine",
   "Latitude": 52.064774,
   "Longitude": -0.536021,
   "charge_points": 3
 },
 {
   "Town": "Buxton",
   "Latitude": 53.261471,
   "Longitude": -1.920792,
   "charge_points": 2
 },
 {
   "Town": "Milton Keynes",
   "Latitude": 52.0146652,
   "Longitude": -0.7433375,
   "charge_points": 3
 },
 {
   "Town": "Clearwell",
   "Latitude": 51.7705199,
   "Longitude": -2.6237831,
   "charge_points": 2
 },
 {
   "Town": "Farsley",
   "Latitude": 53.8174625,
   "Longitude": -1.6648669,
   "charge_points": 1
 },
 {
   "Town": "Lostwithiel",
   "Latitude": 50.4063432,
   "Longitude": -4.6713021,
   "charge_points": 2
 },
 {
   "Town": "Coventry",
   "Latitude": 52.386528,
   "Longitude": -1.587244,
   "charge_points": 4
 },
 {
   "Town": "Westerham",
   "Latitude": 51.2710124,
   "Longitude": 0.0398614,
   "charge_points": 4
 },
 {
   "Town": "Epping, ",
   "Latitude": 51.692369,
   "Longitude": 0.096025,
   "charge_points": 1
 },
 {
   "Town": "Wedmore",
   "Latitude": 51.227734,
   "Longitude": -2.809493,
   "charge_points": 2
 },
 {
   "Town": "London",
   "Latitude": 51.4906477,
   "Longitude": 0.0170174,
   "charge_points": 2
 },
 {
   "Town": "Falmouth",
   "Latitude": 50.09991,
   "Longitude": -5.12989,
   "charge_points": 5
 },
 {
   "Town": "Bournemouth",
   "Latitude": 50.7205824,
   "Longitude": -1.8622659,
   "charge_points": 1
 },
 {
   "Town": "Frodsham",
   "Latitude": 53.2859109,
   "Longitude": -2.7151929,
   "charge_points": 1
 },
 {
   "Town": "Oldham",
   "Latitude": 53.549367,
   "Longitude": -2.100992,
   "charge_points": 2
 },
 {
   "Town": "Manchester",
   "Latitude": 53.4758742,
   "Longitude": -2.247195075,
   "charge_points": 4
 },
 {
   "Town": "Manchester",
   "Latitude": 53.465936,
   "Longitude": -2.23754,
   "charge_points": 4
 },
 {
   "Town": "Bolton",
   "Latitude": 53.575984,
   "Longitude": -2.430774,
   "charge_points": 6
 },
 {
   "Town": "Manchester",
   "Latitude": 53.562253,
   "Longitude": -2.321443,
   "charge_points": 0
 },
 {
   "Town": "Salford",
   "Latitude": 53.485499,
   "Longitude": -2.271312,
   "charge_points": 1
 },
 {
   "Town": "Manchester",
   "Latitude": 53.480056,
   "Longitude": -2.234255,
   "charge_points": 6
 },
 {
   "Town": "Trafford ",
   "Latitude": 53.465385,
   "Longitude": -2.353065,
   "charge_points": 6
 },
 {
   "Town": "Trafford",
   "Latitude": 53.4606,
   "Longitude": -2.287148,
   "charge_points": 2
 },
 {
   "Town": "Worsley",
   "Latitude": 53.50384,
   "Longitude": -2.36265,
   "charge_points": 2
 },
 {
   "Town": "Peterborough",
   "Latitude": 52.55441559,
   "Longitude": -0.278861805,
   "charge_points": 2
 },
 {
   "Town": "Banbury",
   "Latitude": 52.056754,
   "Longitude": -1.339103,
   "charge_points": 1
 },
 {
   "Town": "Brockenhurst",
   "Latitude": 50.8180407,
   "Longitude": -1.5721427,
   "charge_points": 2
 },
 {
   "Town": "Brockenhurst",
   "Latitude": 50.8308158,
   "Longitude": -1.5719577,
   "charge_points": 2
 },
 {
   "Town": "New Milton",
   "Latitude": 50.74566059,
   "Longitude": -1.680463067,
   "charge_points": 2
 },
 {
   "Town": "Brockenhurst",
   "Latitude": 50.81843051,
   "Longitude": -1.576464014,
   "charge_points": 2
 },
 {
   "Town": "Beaulieu",
   "Latitude": 50.8174477,
   "Longitude": -1.4521135,
   "charge_points": 2
 },
 {
   "Town": "Christchurch",
   "Latitude": 50.7596816,
   "Longitude": -1.7717869,
   "charge_points": 2
 },
 {
   "Town": "Ashurst",
   "Latitude": 50.8895859,
   "Longitude": -1.5298596,
   "charge_points": 2
 },
 {
   "Town": "Southampton",
   "Latitude": 50.8847456,
   "Longitude": -1.4500565,
   "charge_points": 2
 },
 {
   "Town": "Lyndhurst",
   "Latitude": 50.8640424,
   "Longitude": -1.5853809,
   "charge_points": 2
 },
 {
   "Town": "Burley",
   "Latitude": 50.8247349,
   "Longitude": -1.683912,
   "charge_points": 2
 },
 {
   "Town": "Ringwood",
   "Latitude": 50.8214581,
   "Longitude": -1.703088,
   "charge_points": 2
 },
 {
   "Town": "Near Lyndhurst",
   "Latitude": 50.9168047,
   "Longitude": -1.5773556,
   "charge_points": 2
 },
 {
   "Town": "Lyndhurst",
   "Latitude": 50.8745286,
   "Longitude": -1.5763993,
   "charge_points": 2
 },
 {
   "Town": "Beaulieu",
   "Latitude": 50.85160789,
   "Longitude": -1.471968751,
   "charge_points": 1
 },
 {
   "Town": "Bradford-on-Avon",
   "Latitude": 51.348899,
   "Longitude": -2.22747,
   "charge_points": 2
 },
 {
   "Town": "Hereford",
   "Latitude": 52.0507001,
   "Longitude": -2.7179553,
   "charge_points": 2
 },
 {
   "Town": "Leominster",
   "Latitude": 52.2267,
   "Longitude": -2.73651,
   "charge_points": 2
 },
 {
   "Town": "Ross-on-Wye",
   "Latitude": 51.9164399,
   "Longitude": -2.584469,
   "charge_points": 2
 },
 {
   "Town": "Wilmslow",
   "Latitude": 53.3528923,
   "Longitude": -2.2165572,
   "charge_points": 2
 },
 {
   "Town": "Broadway",
   "Latitude": 52.0411999,
   "Longitude": -1.827464,
   "charge_points": 1
 },
 {
   "Town": "Milnthorpe",
   "Latitude": 54.1938062,
   "Longitude": -2.753758,
   "charge_points": 1
 },
 {
   "Town": "Coleford",
   "Latitude": 51.8068636,
   "Longitude": -2.6115068,
   "charge_points": 2
 },
 {
   "Town": "",
   "Latitude": 50.444191,
   "Longitude": -5.041928,
   "charge_points": 1
 },
 {
   "Town": "",
   "Latitude": 50.4448473,
   "Longitude": -5.0412534,
   "charge_points": 1
 },
 {
   "Town": "Manchester",
   "Latitude": 53.46866492,
   "Longitude": -2.345757974,
   "charge_points": 4
 },
 {
   "Town": "Near Axminster",
   "Latitude": 50.7590177,
   "Longitude": -2.9703176,
   "charge_points": 1
 },
 {
   "Town": "Cumbria",
   "Latitude": 54.2008627,
   "Longitude": -2.8371901,
   "charge_points": 1
 },
 {
   "Town": "Coventry",
   "Latitude": 52.430914,
   "Longitude": -1.5904292,
   "charge_points": 2
 },
 {
   "Town": "London",
   "Latitude": 51.50341,
   "Longitude": -0.0763194,
   "charge_points": 4
 },
 {
   "Town": "Preston",
   "Latitude": 53.80447796,
   "Longitude": -2.720284696,
   "charge_points": 1
 },
 {
   "Town": "Langport",
   "Latitude": 51.0072628,
   "Longitude": -2.8151976,
   "charge_points": 1
 },
 {
   "Town": "Altrincham",
   "Latitude": 53.391041,
   "Longitude": -2.350928,
   "charge_points": 1
 },
 {
   "Town": "",
   "Latitude": 52.908922,
   "Longitude": -1.2980111,
   "charge_points": 1
 },
 {
   "Town": "Taunton",
   "Latitude": 51.052823,
   "Longitude": -3.0835395,
   "charge_points": 1
 },
 {
   "Town": "Salisbury",
   "Latitude": 51.0682359,
   "Longitude": -1.792888318,
   "charge_points": 4
 },
 {
   "Town": "Leicester",
   "Latitude": 52.63179964,
   "Longitude": -1.128587723,
   "charge_points": 2
 },
 {
   "Town": "Nr. Dunstable",
   "Latitude": 51.81486,
   "Longitude": -0.535704,
   "charge_points": 2
 },
 {
   "Town": "Bournemouth",
   "Latitude": 50.717185,
   "Longitude": -1.884433,
   "charge_points": 1
 },
 {
   "Town": "Nottingham",
   "Latitude": 52.94654658,
   "Longitude": -1.143951416,
   "charge_points": 2
 },
 {
   "Town": "Wolverhampton",
   "Latitude": 52.5786654,
   "Longitude": -2.1247948,
   "charge_points": 3
 },
 {
   "Town": "Newark",
   "Latitude": 53.0742,
   "Longitude": -0.812121,
   "charge_points": 4
 },
 {
   "Town": "Crook",
   "Latitude": 54.71789798,
   "Longitude": -1.734917474,
   "charge_points": 1
 },
 {
   "Town": "Norwich",
   "Latitude": 52.6207424,
   "Longitude": 1.2853645,
   "charge_points": 1
 },
 {
   "Town": "Newquay",
   "Latitude": 50.4174273,
   "Longitude": -5.0716305,
   "charge_points": 3
 },
 {
   "Town": "Wells",
   "Latitude": 51.2097154,
   "Longitude": -2.6967987,
   "charge_points": 1
 },
 {
   "Town": "Basingstoke",
   "Latitude": 51.2651395,
   "Longitude": -1.0336645,
   "charge_points": 1
 },
 {
   "Town": "Waterlooville",
   "Latitude": 50.88541089,
   "Longitude": -1.041051149,
   "charge_points": 1
 },
 {
   "Town": "Milton Keynes",
   "Latitude": 52.04479043,
   "Longitude": -0.750696659,
   "charge_points": 4
 },
 {
   "Town": "Milton Keynes",
   "Latitude": 52.03699,
   "Longitude": -0.768707,
   "charge_points": 2
 },
 {
   "Town": "Milton Keynes",
   "Latitude": 52.062453,
   "Longitude": -0.80891,
   "charge_points": 2
 },
 {
   "Town": "Milton Keynes",
   "Latitude": 52.152646,
   "Longitude": -0.701118,
   "charge_points": 3
 },
 {
   "Town": "Milton Keynes",
   "Latitude": 51.994529,
   "Longitude": -0.731813,
   "charge_points": 2
 },
 {
   "Town": "Milton Keynes",
   "Latitude": 52.03854211,
   "Longitude": -0.770882945,
   "charge_points": 2
 },
 {
   "Town": "Milton Keynes",
   "Latitude": 52.04414,
   "Longitude": -0.75633,
   "charge_points": 0
 },
 {
   "Town": "Milton Keynes",
   "Latitude": 52.042858,
   "Longitude": -0.752976,
   "charge_points": 2
 },
 {
   "Town": "Milton Keynes",
   "Latitude": 52.0402,
   "Longitude": -0.76552,
   "charge_points": 4
 },
 {
   "Town": "Milton Keynes",
   "Latitude": 52.04349707,
   "Longitude": -0.748583078,
   "charge_points": 2
 },
 {
   "Town": "Peterborough",
   "Latitude": 52.5418009,
   "Longitude": -0.2571383,
   "charge_points": 8
 },
 {
   "Town": "Ashton Under Lyne",
   "Latitude": 53.488896,
   "Longitude": -2.097547,
   "charge_points": 2
 },
 {
   "Town": "Oldham",
   "Latitude": 53.516221,
   "Longitude": -2.149217,
   "charge_points": 3
 },
 {
   "Town": "East Didsbury",
   "Latitude": 53.411841,
   "Longitude": -2.217629,
   "charge_points": 3
 },
 {
   "Town": "Stockport",
   "Latitude": 53.4060053,
   "Longitude": -2.1570535,
   "charge_points": 2
 },
 {
   "Town": "Oldham",
   "Latitude": 53.538551,
   "Longitude": -2.071513,
   "charge_points": 2
 },
 {
   "Town": "Salford",
   "Latitude": 53.467308,
   "Longitude": -2.282616,
   "charge_points": 2
 },
 {
   "Town": "Bury",
   "Latitude": 53.5926196,
   "Longitude": -2.2897037,
   "charge_points": 1
 },
 {
   "Town": "Manchester",
   "Latitude": 53.476677,
   "Longitude": -2.249023,
   "charge_points": 6
 },
 {
   "Town": "Ashton Under Lyne",
   "Latitude": 53.4899341,
   "Longitude": -2.0916265,
   "charge_points": 2
 },
 {
   "Town": "Hollinwood",
   "Latitude": 53.519267,
   "Longitude": -2.147945,
   "charge_points": 2
 },
 {
   "Town": "Manchester",
   "Latitude": 53.47182,
   "Longitude": -2.24458,
   "charge_points": 2
 },
 {
   "Town": "Salford",
   "Latitude": 53.442582,
   "Longitude": -2.422144,
   "charge_points": 2
 },
 {
   "Town": "Manchester",
   "Latitude": 53.446002,
   "Longitude": -2.280078,
   "charge_points": 2
 },
 {
   "Town": "Salford",
   "Latitude": 53.487846,
   "Longitude": -2.286247,
   "charge_points": 0
 },
 {
   "Town": "Bury",
   "Latitude": 53.534231,
   "Longitude": -2.283665,
   "charge_points": 1
 },
 {
   "Town": "Rochdale",
   "Latitude": 53.61555,
   "Longitude": -2.16029,
   "charge_points": 6
 },
 {
   "Town": "Salford",
   "Latitude": 53.48631705,
   "Longitude": -2.320385881,
   "charge_points": 7
 },
 {
   "Town": "Bury",
   "Latitude": 53.5930453,
   "Longitude": -2.3012957,
   "charge_points": 1
 },
 {
   "Town": "Salford",
   "Latitude": 53.5248904,
   "Longitude": -2.3986003,
   "charge_points": 2
 },
 {
   "Town": "Bolton",
   "Latitude": 53.59975,
   "Longitude": -2.54712,
   "charge_points": 2
 },
 {
   "Town": "Nottingham",
   "Latitude": 52.9393216,
   "Longitude": -1.139219999,
   "charge_points": 1
 },
 {
   "Town": "Leicester",
   "Latitude": 52.596482,
   "Longitude": -1.1117497,
   "charge_points": 1
 },
 {
   "Town": "Bournemouth",
   "Latitude": 50.75374098,
   "Longitude": -1.842193178,
   "charge_points": 4
 },
 {
   "Town": "Knaresborough",
   "Latitude": 54.0005279,
   "Longitude": -1.411906,
   "charge_points": 2
 },
 {
   "Town": "York",
   "Latitude": 53.94969748,
   "Longitude": -1.075157169,
   "charge_points": 2
 },
 {
   "Town": "York",
   "Latitude": 53.838468,
   "Longitude": -1.100491,
   "charge_points": 2
 },
 {
   "Town": "York",
   "Latitude": 53.93603725,
   "Longitude": -1.072078943,
   "charge_points": 1
 },
 {
   "Town": "Lichfield",
   "Latitude": 52.6833786,
   "Longitude": -1.8309875,
   "charge_points": 0
 },
 {
   "Town": "Falfield",
   "Latitude": 51.6072314,
   "Longitude": -2.4379801,
   "charge_points": 2
 },
 {
   "Town": "Birmingham",
   "Latitude": 52.486982,
   "Longitude": -1.899099,
   "charge_points": 2
 },
 {
   "Town": "Lincoln",
   "Latitude": 53.205745,
   "Longitude": -0.615811,
   "charge_points": 2
 },
 {
   "Town": "Leicester",
   "Latitude": 52.631199,
   "Longitude": -1.13455,
   "charge_points": 2
 },
 {
   "Town": "Stafford",
   "Latitude": 52.81292,
   "Longitude": -2.0826,
   "charge_points": 1
 },
 {
   "Town": "Boston",
   "Latitude": 52.973176,
   "Longitude": -0.066393,
   "charge_points": 2
 },
 {
   "Town": "Leicester",
   "Latitude": 52.619299,
   "Longitude": -1.135637,
   "charge_points": 1
 },
 {
   "Town": "Mansfield",
   "Latitude": 53.13119,
   "Longitude": -1.15986,
   "charge_points": 2
 },
 {
   "Town": "Loughborough",
   "Latitude": 52.765531,
   "Longitude": -1.224826,
   "charge_points": 1
 },
 {
   "Town": "Coventry",
   "Latitude": 52.392408,
   "Longitude": -1.528444,
   "charge_points": 4
 },
 {
   "Town": "Kington",
   "Latitude": 52.202902,
   "Longitude": -3.031862,
   "charge_points": 2
 },
 {
   "Town": "Solihull",
   "Latitude": 52.41561,
   "Longitude": -1.78947,
   "charge_points": 4
 },
 {
   "Town": "Telford",
   "Latitude": 52.68267,
   "Longitude": -2.42603,
   "charge_points": 2
 },
 {
   "Town": "Walsall",
   "Latitude": 52.57227,
   "Longitude": -1.96988,
   "charge_points": 2
 },
 {
   "Town": "Droitwich Spa",
   "Latitude": 52.268901,
   "Longitude": -2.147983,
   "charge_points": 2
 },
 {
   "Town": "Worcester",
   "Latitude": 52.19259077,
   "Longitude": -2.216434373,
   "charge_points": 3
 },
 {
   "Town": "Lichfield",
   "Latitude": 52.7064244,
   "Longitude": -1.7783181,
   "charge_points": 1
 },
 {
   "Town": "Leeds",
   "Latitude": 53.80305859,
   "Longitude": -1.665716171,
   "charge_points": 1
 },
 {
   "Town": "Reading",
   "Latitude": 51.457936,
   "Longitude": -0.9738,
   "charge_points": 4
 },
 {
   "Town": "Sheffield",
   "Latitude": 53.36171883,
   "Longitude": -1.291151047,
   "charge_points": 2
 },
 {
   "Town": "Woodbridge",
   "Latitude": 52.09166953,
   "Longitude": 1.320505142,
   "charge_points": 2
 },
 {
   "Town": "Barnstaple",
   "Latitude": 51.1197593,
   "Longitude": -3.9457971,
   "charge_points": 1
 },
 {
   "Town": "Warrington",
   "Latitude": 53.408298,
   "Longitude": -2.62987,
   "charge_points": 4
 },
 {
   "Town": "Birkenhead",
   "Latitude": 53.3894,
   "Longitude": -3.02909,
   "charge_points": 4
 },
 {
   "Town": "Cambridge",
   "Latitude": 52.199818,
   "Longitude": 0.12866,
   "charge_points": 1
 },
 {
   "Town": "Calverley",
   "Latitude": 53.8245466,
   "Longitude": -1.6923069,
   "charge_points": 0
 },
 {
   "Town": "Altringham",
   "Latitude": 53.364216,
   "Longitude": -2.297829,
   "charge_points": 2
 },
 {
   "Town": "Kenwick Park",
   "Latitude": 53.3356268,
   "Longitude": 0.0207526,
   "charge_points": 1
 },
 {
   "Town": "Corby",
   "Latitude": 52.50207,
   "Longitude": -0.644546,
   "charge_points": 2
 },
 {
   "Town": "Corby",
   "Latitude": 52.487085,
   "Longitude": -0.683184,
   "charge_points": 2
 },
 {
   "Town": "Derby",
   "Latitude": 52.93455,
   "Longitude": -1.465609,
   "charge_points": 2
 },
 {
   "Town": "Corby",
   "Latitude": 52.507014,
   "Longitude": -0.717763,
   "charge_points": 2
 },
 {
   "Town": "Sutton Coldfield",
   "Latitude": 52.56087,
   "Longitude": -1.82584,
   "charge_points": 2
 },
 {
   "Town": "Shrewsbury",
   "Latitude": 52.7371528,
   "Longitude": -2.7261578,
   "charge_points": 2
 },
 {
   "Town": "Rockingham",
   "Latitude": 52.516439,
   "Longitude": -0.725042,
   "charge_points": 2
 },
 {
   "Town": "Hastings",
   "Latitude": 50.855088,
   "Longitude": 0.585295,
   "charge_points": 3
 },
 {
   "Town": "Bicester",
   "Latitude": 51.892739,
   "Longitude": -1.150416,
   "charge_points": 4
 },
 {
   "Town": "Hailsham",
   "Latitude": 50.864741,
   "Longitude": 0.259927,
   "charge_points": 2
 },
 {
   "Town": "Bognor Regis",
   "Latitude": 50.782975,
   "Longitude": -0.670221,
   "charge_points": 2
 },
 {
   "Town": "Fleet",
   "Latitude": 51.29640021,
   "Longitude": -0.856080651,
   "charge_points": 4
 },
 {
   "Town": "Leicester Forest East",
   "Latitude": 52.61963408,
   "Longitude": -1.205470562,
   "charge_points": 5
 },
 {
   "Town": "Leicester Forest East",
   "Latitude": 52.618731,
   "Longitude": -1.205812,
   "charge_points": 5
 },
 {
   "Town": "Ipswich",
   "Latitude": 52.0542421,
   "Longitude": 1.141902208,
   "charge_points": 1
 },
 {
   "Town": "Bishops Stortford",
   "Latitude": 51.87364459,
   "Longitude": 0.158895838,
   "charge_points": 2
 },
 {
   "Town": "Lowestoft",
   "Latitude": 52.47581784,
   "Longitude": 1.715031266,
   "charge_points": 2
 },
 {
   "Town": "",
   "Latitude": 52.13268,
   "Longitude": -0.467969,
   "charge_points": 2
 },
 {
   "Town": "Bury St. Edmunds",
   "Latitude": 52.26894853,
   "Longitude": 0.705345869,
   "charge_points": 1
 },
 {
   "Town": "Coventry",
   "Latitude": 52.394903,
   "Longitude": -1.59543,
   "charge_points": 2
 },
 {
   "Town": "Winchester",
   "Latitude": 51.07047287,
   "Longitude": -1.296129227,
   "charge_points": 1
 },
 {
   "Town": "Milton Keynes",
   "Latitude": 52.00582121,
   "Longitude": -0.7297647,
   "charge_points": 2
 },
 {
   "Town": "Leeds",
   "Latitude": 53.77854638,
   "Longitude": -1.310184842,
   "charge_points": 1
 },
 {
   "Town": "Gilsland",
   "Latitude": 54.9797299,
   "Longitude": -2.5932765,
   "charge_points": 1
 },
 {
   "Town": "Kingston Bagpuize",
   "Latitude": 51.6805364,
   "Longitude": -1.4217923,
   "charge_points": 2
 },
 {
   "Town": "Newmarket",
   "Latitude": 52.24699124,
   "Longitude": 0.419511906,
   "charge_points": 2
 },
 {
   "Town": "York",
   "Latitude": 53.9512452,
   "Longitude": -1.0757697,
   "charge_points": 2
 },
 {
   "Town": "Little Chalfont",
   "Latitude": 51.6676643,
   "Longitude": -0.5614201,
   "charge_points": 8
 },
 {
   "Town": "Hillingdon",
   "Latitude": 51.6114217,
   "Longitude": -0.4243136,
   "charge_points": 4
 },
 {
   "Town": "Hillingdon",
   "Latitude": 51.5732,
   "Longitude": -0.415037,
   "charge_points": 2
 },
 {
   "Town": "Hillingdon",
   "Latitude": 51.577993,
   "Longitude": -0.418033,
   "charge_points": 4
 },
 {
   "Town": "",
   "Latitude": 51.5746321,
   "Longitude": -0.3708342,
   "charge_points": 12
 },
 {
   "Town": " Harrow",
   "Latitude": 51.567551,
   "Longitude": -0.3493101,
   "charge_points": 4
 },
 {
   "Town": "",
   "Latitude": 51.55789944,
   "Longitude": -0.360937379,
   "charge_points": 2
 },
 {
   "Town": "Harrow",
   "Latitude": 51.605063,
   "Longitude": -0.3399508,
   "charge_points": 4
 },
 {
   "Town": "London",
   "Latitude": 51.61919563,
   "Longitude": -0.301587582,
   "charge_points": 12
 },
 {
   "Town": "London",
   "Latitude": 51.58494001,
   "Longitude": -0.277450952,
   "charge_points": 4
 },
 {
   "Town": "Dartford",
   "Latitude": 51.4525772,
   "Longitude": 0.2706811,
   "charge_points": 6
 },
 {
   "Town": "Bexley",
   "Latitude": 51.4654697,
   "Longitude": 0.1413468,
   "charge_points": 4
 },
 {
   "Town": "",
   "Latitude": 51.457401,
   "Longitude": 0.142189,
   "charge_points": 4
 },
 {
   "Town": "Newham",
   "Latitude": 51.5223208,
   "Longitude": 0.0353748,
   "charge_points": 6
 },
 {
   "Town": "Devizes",
   "Latitude": 51.3643178,
   "Longitude": -2.0346008,
   "charge_points": 1
 },
 {
   "Town": "Wigton",
   "Latitude": 54.9528805,
   "Longitude": -3.2151857,
   "charge_points": 1
 },
 {
   "Town": "Humshaugh",
   "Latitude": 55.0376059,
   "Longitude": -2.2168825,
   "charge_points": 2
 },
 {
   "Town": "Sunderland",
   "Latitude": 54.91204546,
   "Longitude": -1.454882397,
   "charge_points": 5
 },
 {
   "Town": "Hull",
   "Latitude": 53.7443882,
   "Longitude": -0.4091785,
   "charge_points": 1
 },
 {
   "Town": "Sheffield",
   "Latitude": 53.3901517,
   "Longitude": -1.4490535,
   "charge_points": 1
 },
 {
   "Town": "",
   "Latitude": 52.9370019,
   "Longitude": -1.4627166,
   "charge_points": 2
 },
 {
   "Town": "St Albans",
   "Latitude": 51.7515632,
   "Longitude": -0.2748507,
   "charge_points": 4
 },
 {
   "Town": "London",
   "Latitude": 51.5207985,
   "Longitude": -0.2633468,
   "charge_points": 3
 },
 {
   "Town": "Weston-super-Mare",
   "Latitude": 51.3444718,
   "Longitude": -2.9683059,
   "charge_points": 1
 },
 {
   "Town": "Keele",
   "Latitude": 52.99323899,
   "Longitude": -2.289351225,
   "charge_points": 5
 },
 {
   "Town": "Derby",
   "Latitude": 52.867562,
   "Longitude": -1.36643,
   "charge_points": 2
 },
 {
   "Town": "Oxford",
   "Latitude": 51.79373991,
   "Longitude": -1.283522844,
   "charge_points": 2
 },
 {
   "Town": "Edgware",
   "Latitude": 51.63062628,
   "Longitude": -0.263730235,
   "charge_points": 4
 },
 {
   "Town": "London",
   "Latitude": 51.55343489,
   "Longitude": -0.260267377,
   "charge_points": 4
 },
 {
   "Town": "Woodall",
   "Latitude": 53.31570448,
   "Longitude": -1.28148973,
   "charge_points": 4
 },
 {
   "Town": "Lichfield",
   "Latitude": 52.674,
   "Longitude": -1.84305,
   "charge_points": 3
 },
 {
   "Town": "Wooler",
   "Latitude": 55.5463903,
   "Longitude": -2.0156151,
   "charge_points": 1
 },
 {
   "Town": "Alnwick",
   "Latitude": 55.5110601,
   "Longitude": -1.7063919,
   "charge_points": 1
 },
 {
   "Town": "Ashington",
   "Latitude": 55.18348729,
   "Longitude": -1.546666456,
   "charge_points": 5
 },
 {
   "Town": "Gosforth",
   "Latitude": 55.0093668,
   "Longitude": -1.6327229,
   "charge_points": 2
 },
 {
   "Town": "Newcastle",
   "Latitude": 55.01016,
   "Longitude": -1.57851,
   "charge_points": 2
 },
 {
   "Town": "Newcastle",
   "Latitude": 55.0126553,
   "Longitude": -1.4957791,
   "charge_points": 1
 },
 {
   "Town": "North Shields",
   "Latitude": 55.0259845,
   "Longitude": -1.4709105,
   "charge_points": 2
 },
 {
   "Town": "Newcastle",
   "Latitude": 54.9797525,
   "Longitude": -1.6181094,
   "charge_points": 1
 },
 {
   "Town": "Newcastle Upon Tyne",
   "Latitude": 54.9676644,
   "Longitude": -1.6147407,
   "charge_points": 1
 },
 {
   "Town": "Gateshead",
   "Latitude": 54.9578777,
   "Longitude": -1.5425248,
   "charge_points": 1
 },
 {
   "Town": "Jarrow",
   "Latitude": 54.9842585,
   "Longitude": -1.4990712,
   "charge_points": 3
 },
 {
   "Town": "Sunderland",
   "Latitude": 54.9020105,
   "Longitude": -1.4253444,
   "charge_points": 1
 },
 {
   "Town": "Sunderland",
   "Latitude": 54.9022723,
   "Longitude": -1.411014,
   "charge_points": 2
 },
 {
   "Town": "Sunderland",
   "Latitude": 54.892445,
   "Longitude": -1.405839,
   "charge_points": 2
 },
 {
   "Town": "Sunderland",
   "Latitude": 54.8863408,
   "Longitude": -1.3614412,
   "charge_points": 1
 },
 {
   "Town": "Sunderland",
   "Latitude": 54.8803214,
   "Longitude": -1.4078815,
   "charge_points": 1
 },
 {
   "Town": "Sunderland",
   "Latitude": 54.8724637,
   "Longitude": -1.4028512,
   "charge_points": 0
 },
 {
   "Town": "Sunderland",
   "Latitude": 54.863511,
   "Longitude": -1.4401824,
   "charge_points": 1
 },
 {
   "Town": "",
   "Latitude": 54.7823327,
   "Longitude": -1.538575,
   "charge_points": 1
 },
 {
   "Town": "",
   "Latitude": 54.7781985,
   "Longitude": -1.5650349,
   "charge_points": 1
 },
 {
   "Town": "Hartlepool",
   "Latitude": 54.6839714,
   "Longitude": -1.2111501,
   "charge_points": 1
 },
 {
   "Town": "Hartlepool",
   "Latitude": 54.6816219,
   "Longitude": -1.2127516,
   "charge_points": 1
 },
 {
   "Town": "Billingham",
   "Latitude": 54.6162686,
   "Longitude": -1.3108743,
   "charge_points": 2
 },
 {
   "Town": "Stockton",
   "Latitude": 54.5747031,
   "Longitude": -1.2745097,
   "charge_points": 1
 },
 {
   "Town": "Stockton On Tees",
   "Latitude": 54.5420651,
   "Longitude": -1.3230983,
   "charge_points": 2
 },
 {
   "Town": "Darlington",
   "Latitude": 54.543231,
   "Longitude": -1.592288,
   "charge_points": 4
 },
 {
   "Town": "",
   "Latitude": 54.6076115,
   "Longitude": -2.0443529,
   "charge_points": 1
 },
 {
   "Town": "",
   "Latitude": 53.5101621,
   "Longitude": -2.3387659,
   "charge_points": 2
 },
 {
   "Town": "Dukinfield",
   "Latitude": 53.47829867,
   "Longitude": -2.091782837,
   "charge_points": 1
 },
 {
   "Town": "Wigan",
   "Latitude": 53.548738,
   "Longitude": -2.6282283,
   "charge_points": 2
 },
 {
   "Town": "Manchester",
   "Latitude": 53.4883894,
   "Longitude": -2.2846981,
   "charge_points": 2
 },
 {
   "Town": "Manchester",
   "Latitude": 53.4883499,
   "Longitude": -2.278579,
   "charge_points": 2
 },
 {
   "Town": "Abbots Leigh",
   "Latitude": 51.465555,
   "Longitude": -2.6698673,
   "charge_points": 2
 },
 {
   "Town": "Cumbria",
   "Latitude": 54.4254205,
   "Longitude": -2.9616136,
   "charge_points": 2
 },
 {
   "Town": "Sidmouth",
   "Latitude": 50.6893575,
   "Longitude": -3.2312985,
   "charge_points": 2
 },
 {
   "Town": "Stoke on Trent",
   "Latitude": 52.98644788,
   "Longitude": -2.172969185,
   "charge_points": 2
 },
 {
   "Town": "Nottingham",
   "Latitude": 52.95244851,
   "Longitude": -1.182644963,
   "charge_points": 2
 },
 {
   "Town": "Stoke-on-Trent",
   "Latitude": 53.0097571,
   "Longitude": -2.181638,
   "charge_points": 2
 },
 {
   "Town": "Stafford",
   "Latitude": 52.8096414,
   "Longitude": -2.0950871,
   "charge_points": 2
 },
 {
   "Town": "Stafford",
   "Latitude": 52.8065159,
   "Longitude": -2.092937,
   "charge_points": 2
 },
 {
   "Town": "Derby",
   "Latitude": 52.9261499,
   "Longitude": -1.4640094,
   "charge_points": 3
 },
 {
   "Town": "Kettering",
   "Latitude": 52.40686708,
   "Longitude": -0.733845858,
   "charge_points": 2
 },
 {
   "Town": "Great Malvern",
   "Latitude": 52.1142297,
   "Longitude": -2.3253499,
   "charge_points": 2
 },
 {
   "Town": "Worcester",
   "Latitude": 52.197,
   "Longitude": -2.245,
   "charge_points": 2
 },
 {
   "Town": "Worcester",
   "Latitude": 52.193,
   "Longitude": -2.2328,
   "charge_points": 2
 },
 {
   "Town": "Worcester",
   "Latitude": 52.18616101,
   "Longitude": -2.181091131,
   "charge_points": 3
 },
 {
   "Town": "Redditch",
   "Latitude": 52.3363861,
   "Longitude": -1.8818841,
   "charge_points": 2
 },
 {
   "Town": "Stratford-upon-Avon",
   "Latitude": 52.1929581,
   "Longitude": -1.7017874,
   "charge_points": 2
 },
 {
   "Town": "",
   "Latitude": 52.189536,
   "Longitude": -1.7090044,
   "charge_points": 2
 },
 {
   "Town": "Coventry",
   "Latitude": 52.3965786,
   "Longitude": -1.4839809,
   "charge_points": 2
 },
 {
   "Town": "Loughborough",
   "Latitude": 52.778368,
   "Longitude": -1.218212,
   "charge_points": 2
 },
 {
   "Town": "Shrewsbury",
   "Latitude": 52.735986,
   "Longitude": -2.721403,
   "charge_points": 0
 },
 {
   "Town": "Birmingham",
   "Latitude": 52.48836,
   "Longitude": -1.912415,
   "charge_points": 0
 },
 {
   "Town": "London",
   "Latitude": 51.60749341,
   "Longitude": -0.209512711,
   "charge_points": 4
 },
 {
   "Town": "London",
   "Latitude": 51.6113883,
   "Longitude": -0.1798489,
   "charge_points": 2
 },
 {
   "Town": " London",
   "Latitude": 51.6157944,
   "Longitude": -0.1304541,
   "charge_points": 5
 },
 {
   "Town": "London",
   "Latitude": 51.63107797,
   "Longitude": -0.176135302,
   "charge_points": 2
 },
 {
   "Town": "Enfield",
   "Latitude": 51.65014154,
   "Longitude": -0.148023943,
   "charge_points": 2
 },
 {
   "Town": "London",
   "Latitude": 51.6473508,
   "Longitude": -0.1353201,
   "charge_points": 12
 },
 {
   "Town": "Bodmin",
   "Latitude": 50.4748134,
   "Longitude": -4.6086545,
   "charge_points": 1
 },
 {
   "Town": "London",
   "Latitude": 51.62551338,
   "Longitude": -0.062742576,
   "charge_points": 1
 },
 {
   "Town": "London",
   "Latitude": 51.64041215,
   "Longitude": -0.041276195,
   "charge_points": 2
 },
 {
   "Town": "London",
   "Latitude": 51.6150506,
   "Longitude": 0.0255395,
   "charge_points": 2
 },
 {
   "Town": "London",
   "Latitude": 51.64155215,
   "Longitude": 0.055133282,
   "charge_points": 8
 },
 {
   "Town": "London",
   "Latitude": 51.5754764,
   "Longitude": 0.0899913,
   "charge_points": 8
 },
 {
   "Town": "London",
   "Latitude": 51.5771469,
   "Longitude": 0.1152286,
   "charge_points": 6
 },
 {
   "Town": "London",
   "Latitude": 51.5569,
   "Longitude": 0.0718,
   "charge_points": 4
 },
 {
   "Town": "",
   "Latitude": 51.53696804,
   "Longitude": 0.072101435,
   "charge_points": 2
 },
 {
   "Town": "London",
   "Latitude": 51.5314092,
   "Longitude": 0.1477138,
   "charge_points": 4
 },
 {
   "Town": "Hornchurch",
   "Latitude": 51.529341,
   "Longitude": 0.1701162,
   "charge_points": 4
 },
 {
   "Town": "London",
   "Latitude": 51.4161,
   "Longitude": 0.123027,
   "charge_points": 2
 },
 {
   "Town": "London",
   "Latitude": 51.397537,
   "Longitude": 0.174579,
   "charge_points": 4
 },
 {
   "Town": "London",
   "Latitude": 51.4216579,
   "Longitude": 0.0220983,
   "charge_points": 2
 },
 {
   "Town": " London",
   "Latitude": 51.41032625,
   "Longitude": 0.024459282,
   "charge_points": 2
 },
 {
   "Town": "London",
   "Latitude": 51.4022775,
   "Longitude": 0.0167663,
   "charge_points": 2
 },
 {
   "Town": "London",
   "Latitude": 51.4070648,
   "Longitude": 0.0061371,
   "charge_points": 4
 },
 {
   "Town": "London",
   "Latitude": 51.40956173,
   "Longitude": -0.0253244,
   "charge_points": 4
 },
 {
   "Town": "London",
   "Latitude": 51.4110326,
   "Longitude": -0.0255257,
   "charge_points": 4
 },
 {
   "Town": "London",
   "Latitude": 51.4079959,
   "Longitude": -0.0360645,
   "charge_points": 4
 },
 {
   "Town": "Rochester",
   "Latitude": 51.39854298,
   "Longitude": 0.51710844,
   "charge_points": 0
 },
 {
   "Town": "London",
   "Latitude": 51.4461179,
   "Longitude": -0.0243341,
   "charge_points": 5
 },
 {
   "Town": "London",
   "Latitude": 51.4192855,
   "Longitude": -0.0540578,
   "charge_points": 4
 },
 {
   "Town": "Croydon",
   "Latitude": 51.3982658,
   "Longitude": -0.075023,
   "charge_points": 1
 },
 {
   "Town": "London",
   "Latitude": 51.3673568,
   "Longitude": -0.1183708,
   "charge_points": 2
 },
 {
   "Town": "London",
   "Latitude": 51.36200217,
   "Longitude": -0.19529918,
   "charge_points": 6
 },
 {
   "Town": "Sutton",
   "Latitude": 51.3680725,
   "Longitude": -0.158297505,
   "charge_points": 2
 },
 {
   "Town": "Mitcham",
   "Latitude": 51.40769973,
   "Longitude": -0.168066562,
   "charge_points": 2
 },
 {
   "Town": "Croydon,",
   "Latitude": 51.4146301,
   "Longitude": -0.1224792,
   "charge_points": 2
 },
 {
   "Town": "Sutton",
   "Latitude": 51.35787414,
   "Longitude": -0.150951671,
   "charge_points": 4
 },
 {
   "Town": "London",
   "Latitude": 51.36106291,
   "Longitude": -0.118424892,
   "charge_points": 2
 },
 {
   "Town": "Hampton",
   "Latitude": 51.41568572,
   "Longitude": -0.373814106,
   "charge_points": 2
 },
 {
   "Town": "Elmbridge",
   "Latitude": 51.37362554,
   "Longitude": -0.36128819,
   "charge_points": 4
 },
 {
   "Town": "Elmbridge",
   "Latitude": 51.36803625,
   "Longitude": -0.366464853,
   "charge_points": 2
 },
 {
   "Town": "Chertsey",
   "Latitude": 51.40519071,
   "Longitude": -0.510202873,
   "charge_points": 8
 },
 {
   "Town": "Hounslow",
   "Latitude": 51.44059698,
   "Longitude": -0.391387939,
   "charge_points": 5
 },
 {
   "Town": "London",
   "Latitude": 51.44826996,
   "Longitude": -0.4110399,
   "charge_points": 4
 },
 {
   "Town": "London",
   "Latitude": 51.472532,
   "Longitude": -0.3848874,
   "charge_points": 10
 },
 {
   "Town": "London",
   "Latitude": 51.4686132,
   "Longitude": -0.3613471,
   "charge_points": 2
 },
 {
   "Town": "Hounslow",
   "Latitude": 51.46576727,
   "Longitude": -0.330404194,
   "charge_points": 4
 },
 {
   "Town": " Hounslow",
   "Latitude": 51.46657105,
   "Longitude": -0.33655919,
   "charge_points": 2
 },
 {
   "Town": "London",
   "Latitude": 51.47413948,
   "Longitude": -0.326735973,
   "charge_points": 6
 },
 {
   "Town": "London",
   "Latitude": 51.485341,
   "Longitude": -0.3012134,
   "charge_points": 4
 },
 {
   "Town": "London",
   "Latitude": 51.5126386,
   "Longitude": -0.3214553,
   "charge_points": 2
 },
 {
   "Town": "Durham",
   "Latitude": 54.786703,
   "Longitude": -1.536564,
   "charge_points": 0
 },
 {
   "Town": "Hexham",
   "Latitude": 55.03571,
   "Longitude": -2.126786,
   "charge_points": 0
 },
 {
   "Town": "Stockton on Tees",
   "Latitude": 54.582585,
   "Longitude": -1.352914,
   "charge_points": 3
 },
 {
   "Town": "Bishop Auckland",
   "Latitude": 54.657799,
   "Longitude": -1.673,
   "charge_points": 4
 },
 {
   "Town": "Surbiton",
   "Latitude": 51.39407805,
   "Longitude": -0.305480808,
   "charge_points": 2
 },
 {
   "Town": "London",
   "Latitude": 51.43112965,
   "Longitude": -0.264298868,
   "charge_points": 2
 },
 {
   "Town": "London",
   "Latitude": 51.4153679,
   "Longitude": -0.252047083,
   "charge_points": 2
 },
 {
   "Town": "Croydon",
   "Latitude": 51.37986115,
   "Longitude": -0.123811246,
   "charge_points": 2
 },
 {
   "Town": " London",
   "Latitude": 51.4185975,
   "Longitude": -0.1358251,
   "charge_points": 2
 },
 {
   "Town": "London",
   "Latitude": 51.4805811,
   "Longitude": -0.419883728,
   "charge_points": 3
 },
 {
   "Town": "London",
   "Latitude": 51.545902,
   "Longitude": -0.481677,
   "charge_points": 2
 },
 {
   "Town": "London",
   "Latitude": 51.4640251,
   "Longitude": -0.2171043,
   "charge_points": 13
 },
 {
   "Town": "London",
   "Latitude": 51.47991961,
   "Longitude": -0.199685097,
   "charge_points": 2
 },
 {
   "Town": "London",
   "Latitude": 51.516121,
   "Longitude": -0.20426,
   "charge_points": 2
 },
 {
   "Town": "London",
   "Latitude": 51.5452032,
   "Longitude": -0.2020834,
   "charge_points": 2
 },
 {
   "Town": "London",
   "Latitude": 51.5155903,
   "Longitude": -0.1586108,
   "charge_points": 4
 },
 {
   "Town": "London",
   "Latitude": 51.5160165,
   "Longitude": -0.0702616,
   "charge_points": 2
 },
 {
   "Town": "London",
   "Latitude": 51.5116935,
   "Longitude": -0.113055249,
   "charge_points": 7
 },
 {
   "Town": "London",
   "Latitude": 51.51229585,
   "Longitude": -0.119148037,
   "charge_points": 3
 },
 {
   "Town": "London",
   "Latitude": 51.50704131,
   "Longitude": -0.100876875,
   "charge_points": 2
 },
 {
   "Town": "London",
   "Latitude": 51.50601793,
   "Longitude": -0.09093225,
   "charge_points": 4
 },
 {
   "Town": "London",
   "Latitude": 51.5029326,
   "Longitude": -0.097117424,
   "charge_points": 2
 },
 {
   "Town": "London",
   "Latitude": 51.5000835,
   "Longitude": -0.0994361,
   "charge_points": 2
 },
 {
   "Town": "London",
   "Latitude": 51.50182,
   "Longitude": -0.159349,
   "charge_points": 2
 },
 {
   "Town": "London",
   "Latitude": 51.4953316,
   "Longitude": -0.1535748,
   "charge_points": 4
 },
 {
   "Town": " London",
   "Latitude": 51.4952621,
   "Longitude": -0.1457219,
   "charge_points": 2
 },
 {
   "Town": "London",
   "Latitude": 51.4899757,
   "Longitude": -0.1460507,
   "charge_points": 6
 },
 {
   "Town": "London",
   "Latitude": 51.45544784,
   "Longitude": -0.092866459,
   "charge_points": 2
 },
 {
   "Town": "London",
   "Latitude": 51.4544306,
   "Longitude": -0.0694666,
   "charge_points": 2
 },
 {
   "Town": "London",
   "Latitude": 51.4666638,
   "Longitude": -0.0732847,
   "charge_points": 2
 },
 {
   "Town": "London",
   "Latitude": 51.4652901,
   "Longitude": -0.0583709,
   "charge_points": 2
 },
 {
   "Town": "London",
   "Latitude": 51.4680593,
   "Longitude": -0.044229277,
   "charge_points": 4
 },
 {
   "Town": "Lifton",
   "Latitude": 50.64349235,
   "Longitude": -4.284050977,
   "charge_points": 2
 },
 {
   "Town": "London",
   "Latitude": 51.4863381,
   "Longitude": -0.1035103,
   "charge_points": 2
 },
 {
   "Town": "London",
   "Latitude": 51.5015894,
   "Longitude": -0.052772023,
   "charge_points": 2
 },
 {
   "Town": "London",
   "Latitude": 51.4951345,
   "Longitude": -0.0532745,
   "charge_points": 2
 },
 {
   "Town": "London",
   "Latitude": 51.53651607,
   "Longitude": -0.044011197,
   "charge_points": 4
 },
 {
   "Town": "London",
   "Latitude": 51.54769767,
   "Longitude": -0.061275424,
   "charge_points": 4
 },
 {
   "Town": "London",
   "Latitude": 51.56974565,
   "Longitude": -0.063815047,
   "charge_points": 4
 },
 {
   "Town": "London",
   "Latitude": 51.5724357,
   "Longitude": -0.070334664,
   "charge_points": 2
 },
 {
   "Town": "London",
   "Latitude": 51.55591258,
   "Longitude": -0.009780713,
   "charge_points": 2
 },
 {
   "Town": " London",
   "Latitude": 51.5811715,
   "Longitude": 0.0215975,
   "charge_points": 4
 },
 {
   "Town": "London",
   "Latitude": 51.595077,
   "Longitude": 0.0221284,
   "charge_points": 4
 },
 {
   "Town": "London",
   "Latitude": 51.5342676,
   "Longitude": -0.0911706,
   "charge_points": 3
 },
 {
   "Town": "London",
   "Latitude": 51.5662203,
   "Longitude": -0.1020606,
   "charge_points": 4
 },
 {
   "Town": "London",
   "Latitude": 51.53650893,
   "Longitude": -0.323927589,
   "charge_points": 5
 },
 {
   "Town": "London",
   "Latitude": 51.5810208,
   "Longitude": -0.2438867,
   "charge_points": 4
 },
 {
   "Town": "London",
   "Latitude": 51.57174852,
   "Longitude": -0.223299265,
   "charge_points": 6
 },
 {
   "Town": "London",
   "Latitude": 51.528801,
   "Longitude": -0.269127,
   "charge_points": 2
 },
 {
   "Town": "Nottingham",
   "Latitude": 52.99610615,
   "Longitude": -1.136580706,
   "charge_points": 2
 },
 {
   "Town": "Carlisle",
   "Latitude": 54.887001,
   "Longitude": -2.92423,
   "charge_points": 2
 },
 {
   "Town": "Leeds",
   "Latitude": 53.7908257,
   "Longitude": -1.5440222,
   "charge_points": 0
 },
 {
   "Town": "Altrincham",
   "Latitude": 53.4053532,
   "Longitude": -2.3500484,
   "charge_points": 0
 },
 {
   "Town": "",
   "Latitude": 53.416349,
   "Longitude": -1.058048,
   "charge_points": 2
 },
 {
   "Town": "Leicester",
   "Latitude": 52.6311727,
   "Longitude": -1.1282172,
   "charge_points": 4
 },
 {
   "Town": "Leicester",
   "Latitude": 52.6149263,
   "Longitude": -1.1422978,
   "charge_points": 0
 },
 {
   "Town": "Dudley",
   "Latitude": 52.5143757,
   "Longitude": -2.0723352,
   "charge_points": 0
 },
 {
   "Town": "Oldbury",
   "Latitude": 52.4938269,
   "Longitude": -2.0220963,
   "charge_points": 0
 },
 {
   "Town": "Suffolk",
   "Latitude": 52.24424197,
   "Longitude": 0.708881021,
   "charge_points": 4
 },
 {
   "Town": "Cambridge",
   "Latitude": 52.1945481,
   "Longitude": 0.1646071,
   "charge_points": 0
 },
 {
   "Town": " Lincoln",
   "Latitude": 53.2282622,
   "Longitude": -0.5332576,
   "charge_points": 2
 },
 {
   "Town": "Bristol",
   "Latitude": 51.4521425,
   "Longitude": -2.593222453,
   "charge_points": 6
 },
 {
   "Town": "Weston-super-Mare",
   "Latitude": 51.341075,
   "Longitude": -2.9574408,
   "charge_points": 0
 },
 {
   "Town": "Ipswich",
   "Latitude": 52.06726002,
   "Longitude": 1.136183739,
   "charge_points": 2
 },
 {
   "Town": "Stafford",
   "Latitude": 52.8036699,
   "Longitude": -2.1212938,
   "charge_points": 4
 },
 {
   "Town": "St Ives",
   "Latitude": 52.32056981,
   "Longitude": -0.065381527,
   "charge_points": 3
 },
 {
   "Town": "Bradford",
   "Latitude": 53.7997855,
   "Longitude": -1.7457186,
   "charge_points": 2
 },
 {
   "Town": "",
   "Latitude": 54.5218458,
   "Longitude": -1.3506531,
   "charge_points": 2
 },
 {
   "Town": "Worthing",
   "Latitude": 50.81066899,
   "Longitude": -0.37479235,
   "charge_points": 4
 },
 {
   "Town": "Ferring",
   "Latitude": 50.81805893,
   "Longitude": -0.458707152,
   "charge_points": 4
 },
 {
   "Town": "Havant",
   "Latitude": 50.84321793,
   "Longitude": -0.993228155,
   "charge_points": 0
 },
 {
   "Town": "Portsmouth",
   "Latitude": 50.8397247,
   "Longitude": -1.047491,
   "charge_points": 0
 },
 {
   "Town": "Southampton",
   "Latitude": 50.91777356,
   "Longitude": -1.488883495,
   "charge_points": 4
 },
 {
   "Town": "Southampton",
   "Latitude": 50.9010277,
   "Longitude": -1.613615821,
   "charge_points": 0
 },
 {
   "Town": "Southend-on-Sea",
   "Latitude": 51.542394,
   "Longitude": 0.695926,
   "charge_points": 2
 },
 {
   "Town": "Chelmsford",
   "Latitude": 51.72897259,
   "Longitude": 0.454273228,
   "charge_points": 2
 },
 {
   "Town": "Colchester",
   "Latitude": 51.8929938,
   "Longitude": 0.918130875,
   "charge_points": 4
 },
 {
   "Town": "Biggleswade",
   "Latitude": 52.0848296,
   "Longitude": -0.3270227,
   "charge_points": 0
 },
 {
   "Town": "Oxford",
   "Latitude": 51.7357481,
   "Longitude": -1.196092145,
   "charge_points": 5
 },
 {
   "Town": "Thatcham",
   "Latitude": 51.40050429,
   "Longitude": -1.236944223,
   "charge_points": 0
 },
 {
   "Town": "Basingstoke",
   "Latitude": 51.275902,
   "Longitude": -1.1057,
   "charge_points": 2
 },
 {
   "Town": "Basingstoke",
   "Latitude": 51.26905505,
   "Longitude": -1.072293565,
   "charge_points": 0
 },
 {
   "Town": "Reading",
   "Latitude": 51.46144791,
   "Longitude": -0.972213065,
   "charge_points": 1
 },
 {
   "Town": "",
   "Latitude": 51.4042313,
   "Longitude": -0.7685239,
   "charge_points": 0
 },
 {
   "Town": "Milton Keynes",
   "Latitude": 52.0429797,
   "Longitude": -0.7589607,
   "charge_points": 4
 },
 {
   "Town": "Cumbria",
   "Latitude": 54.8574868,
   "Longitude": -3.0102612,
   "charge_points": 2
 },
 {
   "Town": "",
   "Latitude": 51.52417426,
   "Longitude": -0.718555668,
   "charge_points": 5
 },
 {
   "Town": "Chalton",
   "Latitude": 51.9119444,
   "Longitude": -0.4806258,
   "charge_points": 0
 },
 {
   "Town": "Welwyn Garden City",
   "Latitude": 51.80323159,
   "Longitude": -0.202951784,
   "charge_points": 4
 },
 {
   "Town": "Teddington",
   "Latitude": 51.42880795,
   "Longitude": -0.321353483,
   "charge_points": 0
 },
 {
   "Town": "",
   "Latitude": 51.5428687,
   "Longitude": 0.0017058,
   "charge_points": 0
 },
 {
   "Town": "London",
   "Latitude": 51.34464923,
   "Longitude": -0.188877823,
   "charge_points": 2
 },
 {
   "Town": "Cartmel",
   "Latitude": 54.205399,
   "Longitude": -2.97221,
   "charge_points": 1
 },
 {
   "Town": "Exeter",
   "Latitude": 50.685887,
   "Longitude": -3.36856,
   "charge_points": 2
 },
 {
   "Town": "Looe",
   "Latitude": 50.399437,
   "Longitude": -4.564152,
   "charge_points": 1
 },
 {
   "Town": "Cheltenham",
   "Latitude": 51.90069349,
   "Longitude": -2.145638466,
   "charge_points": 1
 },
 {
   "Town": "Blackburn",
   "Latitude": 53.809721,
   "Longitude": -2.441012,
   "charge_points": 1
 },
 {
   "Town": "St Austell",
   "Latitude": 50.359195,
   "Longitude": -4.769112,
   "charge_points": 1
 },
 {
   "Town": "Sedbergh",
   "Latitude": 54.3239035,
   "Longitude": -2.5306019,
   "charge_points": 0
 },
 {
   "Town": "Coventry",
   "Latitude": 52.47233635,
   "Longitude": -1.547752512,
   "charge_points": 5
 },
 {
   "Town": "Morpeth",
   "Latitude": 55.171565,
   "Longitude": -1.684189,
   "charge_points": 0
 },
 {
   "Town": "Exbury",
   "Latitude": 50.799339,
   "Longitude": -1.396205,
   "charge_points": 2
 },
 {
   "Town": "Stevenage",
   "Latitude": 51.882896,
   "Longitude": -0.189695,
   "charge_points": 1
 },
 {
   "Town": "Hertford",
   "Latitude": 51.79595,
   "Longitude": -0.075725,
   "charge_points": 0
 },